[
    {
      "country": "SE",
      "isForPresentation": false,
      "name": "Abborrträsk",
      "lon": "19.4105748885",
      "id": "ABB",
      "lat": "65.4464510756"
    },
    {
      "country": "SE",
      "isForPresentation": true,
      "name": "Abisko turiststation",
      "lon": "18.7832603441293",
      "id": "AKT",
      "lat": "68.3573162388287"
    },
    {
      "country": "SE",
      "isForPresentation": true,
      "name": "Abisko Östra",
      "lon": "18.8303462061855",
      "id": "AK",
      "lat": "68.3486410787352"
    },
    {
      "country": "SE",
      "isForPresentation": false,
      "name": "Aga",
      "lon": "18.1564760096",
      "id": "WAGA",
      "lat": "59.3462964478"
    },
    {
      "country": "SE",
      "isForPresentation": false,
      "name": "Agnesberg",
      "lon": "12.0071260888753",
      "id": "AGB",
      "lat": "57.7810535929675"
    },
    {
      "country": "SE",
      "isForPresentation": false,
      "name": "Aitik",
      "lon": "20.7682359514332",
      "id": "AIK",
      "lat": "67.0740146635725"
    },
    {
      "country": "SE",
      "isForPresentation": false,
      "name": "Alby",
      "lon": "15.4747003405014",
      "id": "AY",
      "lat": "62.4901484354078"
    },
    {
      "country": "SE",
      "isForPresentation": false,
      "name": "Aleholm",
      "lon": "14.6634629976291",
      "id": "AHM",
      "lat": "57.3982166976919"
    },
    {
      "country": "SE",
      "isForPresentation": false,
      "name": "Alfta",
      "lon": "16.0713397855704",
      "id": "AFT",
      "lat": "61.3455456340774"
    },
    {
      "country": "SE",
      "isForPresentation": false,
      "name": "Algutsgården",
      "lon": "12.6518699600939",
      "id": "AGG",
      "lat": "57.9881362950378"
    },
    {
      "country": "SE",
      "isForPresentation": true,
      "name": "Alingsås",
      "lon": "12.5321854461032",
      "id": "A",
      "lat": "57.9269051674179"
    },
    {
      "country": "SE",
      "isForPresentation": false,
      "name": "Alléparken",
      "lon": "17.9739876031",
      "id": "WALL",
      "lat": "59.3286461263"
    },
    {
      "country": "SE",
      "isForPresentation": false,
      "name": "Almedal",
      "lon": "12.0039923097205",
      "id": "AM",
      "lat": "57.6840289710905"
    },
    {
      "country": "SE",
      "isForPresentation": false,
      "name": "Almnäs",
      "lon": "17.5078028087881",
      "id": "ALÄ",
      "lat": "59.1694041474975"
    },
    {
      "country": "SE",
      "isForPresentation": false,
      "name": "Almunge",
      "lon": "18.0444693850",
      "id": "XALG",
      "lat": "59.8759455052"
    },
    {
      "country": "SE",
      "isForPresentation": false,
      "name": "Almvik",
      "lon": "16.4663105102346",
      "id": "AVK",
      "lat": "57.8290562275263"
    },
    {
      "country": "SE",
      "isForPresentation": false,
      "name": "Altorp",
      "lon": "18.0728472012",
      "id": "XALP",
      "lat": "59.4108856788"
    },
    {
      "country": "SE",
      "isForPresentation": true,
      "name": "Alvesta",
      "lon": "14.5561917566633",
      "id": "AV",
      "lat": "56.8980219278963"
    },
    {
      "country": "SE",
      "isForPresentation": false,
      "name": "Alvhem",
      "lon": "12.1576850302348",
      "id": "ALH",
      "lat": "58.0108412059048"
    },
    {
      "country": "SE",
      "isForPresentation": false,
      "name": "Alvik",
      "lon": "17.9820039222",
      "id": "WALV",
      "lat": "59.3334321031"
    },
    {
      "country": "SE",
      "isForPresentation": false,
      "name": "Alväng",
      "lon": "15.5660056343219",
      "id": "AÄ",
      "lat": "59.3790105641623"
    },
    {
      "country": "SE",
      "isForPresentation": true,
      "name": "Aneby",
      "lon": "14.8118962530473",
      "id": "ANY",
      "lat": "57.8374345739583"
    },
    {
      "country": "SE",
      "isForPresentation": false,
      "name": "Ankarsrum",
      "lon": "16.3344647951",
      "id": "XAKM",
      "lat": "57.6998565114"
    },
    {
      "country": "SE",
      "isForPresentation": true,
      "name": "Anneberg",
      "lon": "12.1007764219566",
      "id": "AG",
      "lat": "57.5386289256155"
    },
    {
      "country": "SE",
      "isForPresentation": false,
      "name": "Annedal",
      "lon": "12.9296340054614",
      "id": "AAL",
      "lat": "56.1275545771422"
    },
    {
      "country": "SE",
      "isForPresentation": false,
      "name": "Anten",
      "lon": "12.4406777561",
      "id": "XA",
      "lat": "57.9875471598"
    },
    {
      "country": "SE",
      "isForPresentation": false,
      "name": "Anundsjö",
      "lon": "18.143823637484",
      "id": "ANÖ",
      "lat": "63.4266488450104"
    },
    {
      "country": "SE",
      "isForPresentation": false,
      "name": "Aplared",
      "lon": "13.0744164625036",
      "id": "APD",
      "lat": "57.651237474706"
    },
    {
      "country": "SE",
      "isForPresentation": false,
      "name": "Aptas",
      "lon": "20.4433727593545",
      "id": "APT",
      "lat": "67.7640967023145"
    },
    {
      "country": "SE",
      "isForPresentation": true,
      "name": "Arboga",
      "lon": "15.8405255628596",
      "id": "ARB",
      "lat": "59.3971893846826"
    },
    {
      "country": "SE",
      "isForPresentation": true,
      "name": "Arbrå",
      "lon": "16.3798346026096",
      "id": "AB",
      "lat": "61.471034788778"
    },
    {
      "country": "SE",
      "isForPresentation": false,
      "name": "Arelid",
      "lon": "12.4657492019",
      "id": "XARL",
      "lat": "58.0220609991"
    },
    {
      "country": "SE",
      "isForPresentation": true,
      "name": "Arlanda C",
      "lon": "17.9284893767756",
      "id": "ARNC",
      "lat": "59.6490721184902"
    },
    {
      "country": "SE",
      "isForPresentation": false,
      "name": "Arlanda N",
      "lon": "17.9298392761949",
      "id": "ARNN",
      "lat": "59.6515219446133"
    },
    {
      "country": "SE",
      "isForPresentation": false,
      "name": "Arlanda nedre",
      "lon": "17.9231066332064",
      "id": "ARNE",
      "lat": "59.6327129192182"
    },
    {
      "country": "SE",
      "isForPresentation": false,
      "name": "Arlanda S",
      "lon": "17.9283285059998",
      "id": "ARNS",
      "lat": "59.6468203549823"
    },
    {
      "country": "SE",
      "isForPresentation": false,
      "name": "Arlöv",
      "lon": "13.0684120389552",
      "id": "AL",
      "lat": "55.6338637978983"
    },
    {
      "country": "SE",
      "isForPresentation": false,
      "name": "Arlövs industrispår",
      "lon": "13.0722201983316",
      "id": "ALI",
      "lat": "55.6414011608906"
    },
    {
      "country": "SE",
      "isForPresentation": false,
      "name": "Arnemark",
      "lon": "21.2179338294675",
      "id": "AMK",
      "lat": "65.4912755738052"
    },
    {
      "country": "SE",
      "isForPresentation": false,
      "name": "Arnäsvall",
      "lon": "18.7859434054292",
      "id": "ARA",
      "lat": "63.3080206811078"
    },
    {
      "country": "SE",
      "isForPresentation": false,
      "name": "Arvidsjaur",
      "lon": "19.1684519442907",
      "id": "AJR",
      "lat": "65.5887057521369"
    },
    {
      "country": "SE",
      "isForPresentation": true,
      "name": "Arvika",
      "lon": "12.5908033624871",
      "id": "AR",
      "lat": "59.6536341600957"
    },
    {
      "country": "SE",
      "isForPresentation": false,
      "name": "Arvån",
      "lon": "19.0030109558005",
      "id": "AN",
      "lat": "64.5583573398218"
    },
    {
      "country": "SE",
      "isForPresentation": false,
      "name": "Aska",
      "lon": "14.9781867030",
      "id": "XASK",
      "lat": "58.4541849891"
    },
    {
      "country": "SE",
      "isForPresentation": true,
      "name": "Aspedalen",
      "lon": "12.2584783497334",
      "id": "ASD",
      "lat": "57.7624780642596"
    },
    {
      "country": "SE",
      "isForPresentation": true,
      "name": "Aspen",
      "lon": "12.2405122266754",
      "id": "APN",
      "lat": "57.754422054421"
    },
    {
      "country": "SE",
      "isForPresentation": false,
      "name": "Aspeå",
      "lon": "17.5136456430103",
      "id": "AP",
      "lat": "63.387693391759"
    },
    {
      "country": "SE",
      "isForPresentation": true,
      "name": "Assberg",
      "lon": "12.668601515725",
      "id": "ASB",
      "lat": "57.4943517192597"
    },
    {
      "country": "SE",
      "isForPresentation": true,
      "name": "Astrid Lindgrens värld",
      "lon": "15.8400639355749",
      "id": "ALV",
      "lat": "57.6727072934453"
    },
    {
      "country": "SE",
      "isForPresentation": false,
      "name": "Attarp",
      "lon": "13.8487104831543",
      "id": "ATP",
      "lat": "56.1372029369228"
    },
    {
      "country": "SE",
      "isForPresentation": false,
      "name": "Auktsjaur",
      "lon": "19.3939289080",
      "id": "AUK",
      "lat": "65.7386814187"
    },
    {
      "country": "SE",
      "isForPresentation": false,
      "name": "Avaviken",
      "lon": "18.6509237129647",
      "id": "AVA",
      "lat": "65.6051198279393"
    },
    {
      "country": "SE",
      "isForPresentation": true,
      "name": "Avesta centrum",
      "lon": "16.1706069231625",
      "id": "ACM",
      "lat": "60.1472930305922"
    },
    {
      "country": "SE",
      "isForPresentation": true,
      "name": "Avesta Krylbo",
      "lon": "16.2161478361305",
      "id": "AVKY",
      "lat": "60.1295332403611"
    },
    {
      "country": "SE",
      "isForPresentation": false,
      "name": "Axhult",
      "lon": "13.6926071445",
      "id": "MRD.AX",
      "lat": "56.5168359487"
    },
    {
      "country": "SE",
      "isForPresentation": false,
      "name": "Axmar Bruk",
      "lon": "17.1333988411",
      "id": "AX.BR",
      "lat": "61.0497530337"
    },
    {
      "country": "SE",
      "isForPresentation": false,
      "name": "Axmarby",
      "lon": "17.1135900221248",
      "id": "AX",
      "lat": "61.0073863874212"
    },
    {
      "country": "SE",
      "isForPresentation": false,
      "name": "Backe",
      "lon": "16.4269094978588",
      "id": "BE",
      "lat": "63.8073218543052"
    },
    {
      "country": "SE",
      "isForPresentation": false,
      "name": "Backsjön",
      "lon": "17.2994513143905",
      "id": "BAÖ",
      "lat": "63.3247229083742"
    },
    {
      "country": "XX",
      "isForPresentation": false,
      "name": "Badabruk",
      "lon": "13.0961355244713",
      "id": "BDB",
      "lat": "60.0621873711119"
    },
    {
      "country": "SE",
      "isForPresentation": false,
      "name": "Badsta",
      "lon": "14.2914543731746",
      "id": "BAD",
      "lat": "59.5474859128165"
    },
    {
      "country": "SE",
      "isForPresentation": false,
      "name": "Baggeby",
      "lon": "18.1339053224",
      "id": "WBAG",
      "lat": "59.3568344887"
    },
    {
      "country": "SE",
      "isForPresentation": false,
      "name": "Baggetorp",
      "lon": "16.0649130075315",
      "id": "BT",
      "lat": "59.009615590845"
    },
    {
      "country": "SE",
      "isForPresentation": true,
      "name": "Ballingslöv",
      "lon": "13.8483919546551",
      "id": "BL",
      "lat": "56.2140339233034"
    },
    {
      "country": "SE",
      "isForPresentation": true,
      "name": "Bankeryd",
      "lon": "14.1282336437804",
      "id": "BRY",
      "lat": "57.8603598826017"
    },
    {
      "country": "SE",
      "isForPresentation": false,
      "name": "Barkarby",
      "lon": "17.8673565306373",
      "id": "BKB",
      "lat": "59.4041345947938"
    },
    {
      "country": "SE",
      "isForPresentation": false,
      "name": "Barkåkra",
      "lon": "12.8246319072",
      "id": "BAA",
      "lat": "56.2936557464"
    },
    {
      "country": "SE",
      "isForPresentation": false,
      "name": "Barva",
      "lon": "16.7927643443032",
      "id": "BVA",
      "lat": "59.3434158148728"
    },
    {
      "country": "XX",
      "isForPresentation": true,
      "name": "Basthagen",
      "lon": "15.9741711774486",
      "id": "BTH",
      "lat": "58.2054984808934"
    },
    {
      "country": "SE",
      "isForPresentation": true,
      "name": "Bastuträsk",
      "lon": "20.0415114123291",
      "id": "BST",
      "lat": "64.7890385030436"
    },
    {
      "country": "SE",
      "isForPresentation": false,
      "name": "Bengtsfors",
      "lon": "12.2348695128086",
      "id": "BEF",
      "lat": "59.0289040009623"
    },
    {
      "country": "SE",
      "isForPresentation": false,
      "name": "Bensjöbacken",
      "lon": "15.4542932846921",
      "id": "BSB",
      "lat": "62.7035570713074"
    },
    {
      "country": "SE",
      "isForPresentation": true,
      "name": "Berga",
      "lon": "16.033442964319",
      "id": "BG",
      "lat": "57.2165328062797"
    },
    {
      "country": "SE",
      "isForPresentation": false,
      "name": "Bergfors",
      "lon": "19.7826878496739",
      "id": "BFS",
      "lat": "68.1472705827621"
    },
    {
      "country": "SE",
      "isForPresentation": true,
      "name": "Berghem",
      "lon": "12.5983644397695",
      "id": "BGM",
      "lat": "57.46703679088"
    },
    {
      "country": "SE",
      "isForPresentation": true,
      "name": "Bergåsa",
      "lon": "15.6006353799099",
      "id": "BÅA",
      "lat": "56.1818170883158"
    },
    {
      "country": "DE",
      "isForPresentation": false,
      "name": "Berlin Hbf",
      "lon": "13.4080532629759",
      "id": "DE.BER",
      "lat": "52.5186101071692"
    },
    {
      "country": "SE",
      "isForPresentation": false,
      "name": "Bestorp",
      "lon": "15.731784480864",
      "id": "BSP",
      "lat": "58.235770319295"
    },
    {
      "country": "SE",
      "isForPresentation": false,
      "name": "Betåsen",
      "lon": "16.8136507794893",
      "id": "BTÅ",
      "lat": "63.5520177301548"
    },
    {
      "country": "SE",
      "isForPresentation": false,
      "name": "Billeberga",
      "lon": "12.9958482485871",
      "id": "BIB",
      "lat": "55.8837601982508"
    },
    {
      "country": "SE",
      "isForPresentation": false,
      "name": "Billesholm",
      "lon": "12.9768301458667",
      "id": "BIH",
      "lat": "56.0564054023435"
    },
    {
      "country": "SE",
      "isForPresentation": false,
      "name": "Billingsfors",
      "lon": "12.2496695674196",
      "id": "BFO",
      "lat": "58.9819643741444"
    },
    {
      "country": "SE",
      "isForPresentation": false,
      "name": "Birsta",
      "lon": "17.3126128136913",
      "id": "BIA",
      "lat": "62.4471206928539"
    },
    {
      "country": "SE",
      "isForPresentation": false,
      "name": "Biskopstorp",
      "lon": "12.8589063947524",
      "id": "BTP",
      "lat": "56.7496151316212"
    },
    {
      "country": "SE",
      "isForPresentation": false,
      "name": "Bispgården",
      "lon": "16.6208846955545",
      "id": "BSG",
      "lat": "63.0286649720903"
    },
    {
      "country": "SE",
      "isForPresentation": false,
      "name": "Bjurhem",
      "lon": "12.2800531105714",
      "id": "BJH",
      "lat": "58.4284661975608"
    },
    {
      "country": "SE",
      "isForPresentation": false,
      "name": "Bjurå",
      "lon": "22.1494982357188",
      "id": "BRÅ",
      "lat": "66.0355526784454"
    },
    {
      "country": "SE",
      "isForPresentation": false,
      "name": "Bjuv",
      "lon": "12.9110740101614",
      "id": "BJUV",
      "lat": "56.0825674361691"
    },
    {
      "country": "SE",
      "isForPresentation": false,
      "name": "Bjärka-Säby",
      "lon": "15.7528235309471",
      "id": "BSÄ",
      "lat": "58.2706331377105"
    },
    {
      "country": "SE",
      "isForPresentation": false,
      "name": "Bjärnum",
      "lon": "13.704058706657",
      "id": "BJM",
      "lat": "56.2929268792091"
    },
    {
      "country": "SE",
      "isForPresentation": false,
      "name": "Bjästa",
      "lon": "18.444524031963",
      "id": "BJA",
      "lat": "63.2115866059666"
    },
    {
      "country": "SE",
      "isForPresentation": false,
      "name": "Björbo",
      "lon": "14.7288098648694",
      "id": "BÖO",
      "lat": "60.4531237087972"
    },
    {
      "country": "SE",
      "isForPresentation": true,
      "name": "Björketorp",
      "lon": "12.5239444867031",
      "id": "BJO",
      "lat": "57.4279259657937"
    },
    {
      "country": "SE",
      "isForPresentation": false,
      "name": "Björkhult",
      "lon": "15.6643247720723",
      "id": "BÖK",
      "lat": "57.8485363935235"
    },
    {
      "country": "SE",
      "isForPresentation": true,
      "name": "Björkliden",
      "lon": "18.6863534252475",
      "id": "BLN",
      "lat": "68.4083872345493"
    },
    {
      "country": "SE",
      "isForPresentation": true,
      "name": "Björköby",
      "lon": "14.9105621479838",
      "id": "BJY",
      "lat": "57.521052466788"
    },
    {
      "country": "SE",
      "isForPresentation": false,
      "name": "Björna",
      "lon": "18.5968718938934",
      "id": "BJ",
      "lat": "63.5514030514999"
    },
    {
      "country": "SE",
      "isForPresentation": false,
      "name": "Björneborg",
      "lon": "14.2503849752697",
      "id": "BJB",
      "lat": "59.244355075379"
    },
    {
      "country": "NO",
      "isForPresentation": true,
      "name": "Björnfjell",
      "lon": "18.0715614043594",
      "id": "BJF",
      "lat": "68.4320478814142"
    },
    {
      "country": "SE",
      "isForPresentation": false,
      "name": "Björnidet",
      "lon": "14.7469293570342",
      "id": "BID",
      "lat": "61.3816169282451"
    },
    {
      "country": "SE",
      "isForPresentation": false,
      "name": "Björnkulla",
      "lon": "17.928581180791",
      "id": "BJN",
      "lat": "59.2037558405338"
    },
    {
      "country": "SE",
      "isForPresentation": false,
      "name": "Björnlunda",
      "lon": "17.1546581507634",
      "id": "B",
      "lat": "59.0655504077227"
    },
    {
      "country": "SE",
      "isForPresentation": false,
      "name": "Björnsjö",
      "lon": "18.4603132887606",
      "id": "BJÖ",
      "lat": "63.5076686725922"
    },
    {
      "country": "NO",
      "isForPresentation": false,
      "name": "Bjørnfjell",
      "lon": "18.0710867313",
      "id": "XBJF",
      "lat": "68.4321463791"
    },
    {
      "country": "SE",
      "isForPresentation": false,
      "name": "Blackvreten",
      "lon": "17.9075555662777",
      "id": "BVR",
      "lat": "59.6076032065377"
    },
    {
      "country": "SE",
      "isForPresentation": false,
      "name": "Blattnicksele",
      "lon": "17.5898359228516",
      "id": "BNK",
      "lat": "65.3447558318283"
    },
    {
      "country": "SE",
      "isForPresentation": false,
      "name": "Blidstena",
      "lon": "16.3764605651185",
      "id": "BDA",
      "lat": "58.0392565358813"
    },
    {
      "country": "SE",
      "isForPresentation": true,
      "name": "Blomberg",
      "lon": "13.3205202702958",
      "id": "BMB",
      "lat": "58.5401527097044"
    },
    {
      "country": "SE",
      "isForPresentation": true,
      "name": "Blomstermåla",
      "lon": "16.3321139948145",
      "id": "BMA",
      "lat": "56.9807111640928"
    },
    {
      "country": "SE",
      "isForPresentation": false,
      "name": "Blyberg",
      "lon": "14.1377814612227",
      "id": "BBE",
      "lat": "61.1532761135922"
    },
    {
      "country": "SE",
      "isForPresentation": false,
      "name": "Blädinge",
      "lon": "14.5043568211612",
      "id": "BLD",
      "lat": "56.8415075990754"
    },
    {
      "country": "SE",
      "isForPresentation": false,
      "name": "Blägda",
      "lon": "16.1234099408",
      "id": "XBLÄ",
      "lat": "57.6102489600"
    },
    {
      "country": "SE",
      "isForPresentation": false,
      "name": "Boda",
      "lon": "17.0080641945786",
      "id": "BODA",
      "lat": "61.590484662856"
    },
    {
      "country": "SE",
      "isForPresentation": false,
      "name": "Bodaborg",
      "lon": "16.3755574954251",
      "id": "BOG",
      "lat": "62.4593481535058"
    },
    {
      "country": "SE",
      "isForPresentation": true,
      "name": "Bodafors",
      "lon": "14.694780120814",
      "id": "BDF",
      "lat": "57.5061001376258"
    },
    {
      "country": "SE",
      "isForPresentation": false,
      "name": "Bodal",
      "lon": "18.1384555962",
      "id": "WBOD",
      "lat": "59.3536964736"
    },
    {
      "country": "SE",
      "isForPresentation": true,
      "name": "Boden C",
      "lon": "21.7080533433063",
      "id": "BDN",
      "lat": "65.8288023405279"
    },
    {
      "country": "SE",
      "isForPresentation": false,
      "name": "Bodens södra",
      "lon": "21.6473669082432",
      "id": "BDS",
      "lat": "65.8254753343644"
    },
    {
      "country": "SE",
      "isForPresentation": false,
      "name": "Bodsjön",
      "lon": "15.4213000451051",
      "id": "BÖN",
      "lat": "62.814644921116"
    },
    {
      "country": "SE",
      "isForPresentation": false,
      "name": "Bofors",
      "lon": "14.5469261211809",
      "id": "BOF",
      "lat": "59.3333108653712"
    },
    {
      "country": "SE",
      "isForPresentation": true,
      "name": "Bohus",
      "lon": "12.0195643700662",
      "id": "BHS",
      "lat": "57.8640055637278"
    },
    {
      "country": "SE",
      "isForPresentation": true,
      "name": "Bollebygd",
      "lon": "12.5700109218786",
      "id": "BOY",
      "lat": "57.6675305014501"
    },
    {
      "country": "SE",
      "isForPresentation": true,
      "name": "Bollnäs",
      "lon": "16.3917203951016",
      "id": "BN",
      "lat": "61.3494847408896"
    },
    {
      "country": "SE",
      "isForPresentation": false,
      "name": "Bolzano",
      "lon": "11.2567067238",
      "id": "IT.BOL",
      "lat": "46.5163911134"
    },
    {
      "country": "SE",
      "isForPresentation": false,
      "name": "Bomansberget",
      "lon": "17.2417948604959",
      "id": "BOM",
      "lat": "60.6507618122536"
    },
    {
      "country": "SE",
      "isForPresentation": true,
      "name": "Bor",
      "lon": "14.1686435183678",
      "id": "BOR",
      "lat": "57.1161315557949"
    },
    {
      "country": "SE",
      "isForPresentation": true,
      "name": "Borgstena",
      "lon": "13.0148329131348",
      "id": "BOA",
      "lat": "57.882975228598"
    },
    {
      "country": "SE",
      "isForPresentation": true,
      "name": "Borlänge C",
      "lon": "15.4254721107928",
      "id": "BLG",
      "lat": "60.4829431314137"
    },
    {
      "country": "SE",
      "isForPresentation": false,
      "name": "Born",
      "lon": "14.6429705314542",
      "id": "BORN",
      "lat": "61.1352704137154"
    },
    {
      "country": "SE",
      "isForPresentation": false,
      "name": "Bor Norra",
      "lon": "14.1702567982",
      "id": "XBN",
      "lat": "57.1163578493"
    },
    {
      "country": "SE",
      "isForPresentation": true,
      "name": "Borås C",
      "lon": "12.9310250022131",
      "id": "BS",
      "lat": "57.720331643933"
    },
    {
      "country": "SE",
      "isForPresentation": false,
      "name": "Botorp",
      "lon": "14.4631387593533",
      "id": "BOP",
      "lat": "59.316693355303"
    },
    {
      "country": "SE",
      "isForPresentation": true,
      "name": "Boxholm",
      "lon": "15.0536306926954",
      "id": "BX",
      "lat": "58.1929189074741"
    },
    {
      "country": "SE",
      "isForPresentation": false,
      "name": "Brastad",
      "lon": "11.4852800580059",
      "id": "BSA",
      "lat": "58.3821965688771"
    },
    {
      "country": "SE",
      "isForPresentation": false,
      "name": "Brattby",
      "lon": "19.8816367545585",
      "id": "BTB",
      "lat": "63.9109729358939"
    },
    {
      "country": "XX",
      "isForPresentation": false,
      "name": "Bratteborg",
      "lon": "14.1253561784943",
      "id": "BTG",
      "lat": "57.5776121509893"
    },
    {
      "country": "SE",
      "isForPresentation": false,
      "name": "Brattheden",
      "lon": "16.181052445287",
      "id": "BRH",
      "lat": "59.7880348860487"
    },
    {
      "country": "SE",
      "isForPresentation": false,
      "name": "Brattsbacka",
      "lon": "19.1857625204601",
      "id": "BRS",
      "lat": "63.7847863659148"
    },
    {
      "country": "SE",
      "isForPresentation": true,
      "name": "Bredaryd",
      "lon": "13.7376510012433",
      "id": "BDY",
      "lat": "57.1765367548765"
    },
    {
      "country": "XX",
      "isForPresentation": true,
      "name": "Bredsjö",
      "lon": "14.7269179486679",
      "id": "BRÖ",
      "lat": "59.8320341731395"
    },
    {
      "country": "SE",
      "isForPresentation": false,
      "name": "Bredviken",
      "lon": "23.2331540488122",
      "id": "BEN",
      "lat": "65.8373829894487"
    },
    {
      "country": "SE",
      "isForPresentation": false,
      "name": "Brevik",
      "lon": "18.2036544695",
      "id": "WBVI",
      "lat": "59.3483980033"
    },
    {
      "country": "SE",
      "isForPresentation": true,
      "name": "Brinellskolan",
      "lon": "14.7009363103458",
      "id": "BRIN",
      "lat": "57.6694202724428"
    },
    {
      "country": "SE",
      "isForPresentation": false,
      "name": "Brista",
      "lon": "17.867244896856",
      "id": "BRA",
      "lat": "59.6099745685095"
    },
    {
      "country": "SE",
      "isForPresentation": false,
      "name": "Bro",
      "lon": "17.6329583329725",
      "id": "BRO",
      "lat": "59.5123000112716"
    },
    {
      "country": "SE",
      "isForPresentation": false,
      "name": "Brobacka",
      "lon": "12.4345383014",
      "id": "XBB",
      "lat": "57.9778173678"
    },
    {
      "country": "SE",
      "isForPresentation": false,
      "name": "Broddbo",
      "lon": "16.4818824355647",
      "id": "BDO",
      "lat": "59.9869158501694"
    },
    {
      "country": "SE",
      "isForPresentation": false,
      "name": "Brogården",
      "lon": "14.0542061924479",
      "id": "BGD",
      "lat": "57.9172027063354"
    },
    {
      "country": "SE",
      "isForPresentation": false,
      "name": "Brokind",
      "lon": "15.684241065822",
      "id": "BRK",
      "lat": "58.2201445889614"
    },
    {
      "country": "SE",
      "isForPresentation": true,
      "name": "Bromölla",
      "lon": "14.4816195228402",
      "id": "BML",
      "lat": "56.0671645865324"
    },
    {
      "country": "SE",
      "isForPresentation": false,
      "name": "Bro Nygård",
      "lon": "17.6720022960401",
      "id": "BRNY",
      "lat": "59.4976893669945"
    },
    {
      "country": "SE",
      "isForPresentation": false,
      "name": "Bruksberget",
      "lon": "22.7136274537672",
      "id": "BET",
      "lat": "66.0036497517564"
    },
    {
      "country": "SE",
      "isForPresentation": true,
      "name": "Brunflo",
      "lon": "14.8325839147295",
      "id": "BF",
      "lat": "63.0759732898785"
    },
    {
      "country": "SE",
      "isForPresentation": false,
      "name": "Brunna",
      "lon": "17.428941526383",
      "id": "BNA",
      "lat": "59.861356325598"
    },
    {
      "country": "SE",
      "isForPresentation": false,
      "name": "Brunnsgård",
      "lon": "15.1068972057339",
      "id": "BSD",
      "lat": "57.4225512966623"
    },
    {
      "country": "SE",
      "isForPresentation": true,
      "name": "Brunsberg",
      "lon": "12.9613133920282",
      "id": "BUK",
      "lat": "59.6176282833146"
    },
    {
      "country": "SE",
      "isForPresentation": false,
      "name": "Brunsbergstunneln",
      "lon": "12.9465905357272",
      "id": "BU",
      "lat": "59.6223927225015"
    },
    {
      "country": "SE",
      "isForPresentation": false,
      "name": "Bruzaholm",
      "lon": "15.2751829305445",
      "id": "BZ",
      "lat": "57.6416374092622"
    },
    {
      "country": "SE",
      "isForPresentation": false,
      "name": "Bryngenäs",
      "lon": "12.487553814658",
      "id": "BGS",
      "lat": "57.8977603815998"
    },
    {
      "country": "SE",
      "isForPresentation": false,
      "name": "Brågarp",
      "lon": "13.2265544519984",
      "id": "BÅP",
      "lat": "55.6499843504796"
    },
    {
      "country": "SE",
      "isForPresentation": false,
      "name": "Brålanda",
      "lon": "12.3489717100477",
      "id": "BRL",
      "lat": "58.5600420027967"
    },
    {
      "country": "SE",
      "isForPresentation": false,
      "name": "Brånan",
      "lon": "14.4090087741343",
      "id": "BRN",
      "lat": "62.6938119212339"
    },
    {
      "country": "SE",
      "isForPresentation": false,
      "name": "Bråvallavägen",
      "lon": "18.0604440748",
      "id": "XBVV",
      "lat": "59.4054979576"
    },
    {
      "country": "SE",
      "isForPresentation": true,
      "name": "Bräcke",
      "lon": "15.4176180503435",
      "id": "BÄ",
      "lat": "62.7500039033173"
    },
    {
      "country": "SE",
      "isForPresentation": true,
      "name": "Bräkne-Hoby",
      "lon": "15.1160583377758",
      "id": "BHB",
      "lat": "56.2313701348213"
    },
    {
      "country": "SE",
      "isForPresentation": false,
      "name": "Brännarp",
      "lon": "12.7280987900304",
      "id": "BP",
      "lat": "56.7881257356869"
    },
    {
      "country": "SE",
      "isForPresentation": false,
      "name": "Brännberg",
      "lon": "21.2257063495481",
      "id": "BRG",
      "lat": "65.7830763655734"
    },
    {
      "country": "SE",
      "isForPresentation": false,
      "name": "Bränninge",
      "lon": "17.6352365348096",
      "id": "BRE",
      "lat": "59.1405011677401"
    },
    {
      "country": "SE",
      "isForPresentation": false,
      "name": "Brännland",
      "lon": "20.0566190956887",
      "id": "BRD",
      "lat": "63.8806494186925"
    },
    {
      "country": "SE",
      "isForPresentation": false,
      "name": "Brännlandsberget",
      "lon": "20.1019530428657",
      "id": "BRDB",
      "lat": "63.8700404872416"
    },
    {
      "country": "SE",
      "isForPresentation": false,
      "name": "Bränntjärn",
      "lon": "19.3040155147",
      "id": "BRÄ",
      "lat": "65.4957351134"
    },
    {
      "country": "SE",
      "isForPresentation": false,
      "name": "Brännögård",
      "lon": "13.1007954953161",
      "id": "BÖG",
      "lat": "57.00551080468"
    },
    {
      "country": "SE",
      "isForPresentation": false,
      "name": "Brösarp",
      "lon": "14.1253314930",
      "id": "XBÖP",
      "lat": "55.7350456596"
    },
    {
      "country": "SE",
      "isForPresentation": false,
      "name": "Brösarp södra",
      "lon": "14.1260378814",
      "id": "XBÖS",
      "lat": "55.7319416278"
    },
    {
      "country": "SE",
      "isForPresentation": false,
      "name": "Buddbyn",
      "lon": "21.7083686747871",
      "id": "BUD",
      "lat": "65.8630107466169"
    },
    {
      "country": "SE",
      "isForPresentation": false,
      "name": "Buresjön",
      "lon": "17.8530175958197",
      "id": "BUR",
      "lat": "65.5536573762586"
    },
    {
      "country": "SE",
      "isForPresentation": false,
      "name": "Burlöv",
      "lon": "13.0803955821808",
      "id": "BLV",
      "lat": "55.6409182304278"
    },
    {
      "country": "SE",
      "isForPresentation": false,
      "name": "Buterud",
      "lon": "12.4002562415534",
      "id": "BUT",
      "lat": "58.8531131446775"
    },
    {
      "country": "XX",
      "isForPresentation": false,
      "name": "Byarum",
      "lon": "14.1437684644154",
      "id": "BYM",
      "lat": "57.5362542597149"
    },
    {
      "country": "SE",
      "isForPresentation": false,
      "name": "Byvalla",
      "lon": "16.4162983038521",
      "id": "BY",
      "lat": "60.3470140356564"
    },
    {
      "country": "SE",
      "isForPresentation": false,
      "name": "Byälven",
      "lon": "12.9221282177582",
      "id": "BYÄ",
      "lat": "59.1386251874407"
    },
    {
      "country": "SE",
      "isForPresentation": true,
      "name": "Bålsta",
      "lon": "17.5318845338848",
      "id": "BÅL",
      "lat": "59.5694322730088"
    },
    {
      "country": "SE",
      "isForPresentation": false,
      "name": "Båramo",
      "lon": "14.0906556826682",
      "id": "BMO",
      "lat": "57.4535603580179"
    },
    {
      "country": "SE",
      "isForPresentation": false,
      "name": "Båstad",
      "lon": "12.8686577561333",
      "id": "BÅSÖ",
      "lat": "56.4249910221979"
    },
    {
      "country": "SE",
      "isForPresentation": true,
      "name": "Båstad norra",
      "lon": "12.9050325869515",
      "id": "BÅN",
      "lat": "56.4308679049821"
    },
    {
      "country": "SE",
      "isForPresentation": true,
      "name": "Bäckebron",
      "lon": "13.1661643561986",
      "id": "BÄB",
      "lat": "59.6610381288803"
    },
    {
      "country": "SE",
      "isForPresentation": false,
      "name": "Bäckedal",
      "lon": "14.3765843288587",
      "id": "BDL",
      "lat": "62.0265894882368"
    },
    {
      "country": "SE",
      "isForPresentation": false,
      "name": "Bäckefors",
      "lon": "12.1592925700633",
      "id": "BÄF",
      "lat": "58.8043367015648"
    },
    {
      "country": "SE",
      "isForPresentation": false,
      "name": "Bälgviken",
      "lon": "16.4606365610071",
      "id": "BGV",
      "lat": "59.2526782087152"
    },
    {
      "country": "SE",
      "isForPresentation": false,
      "name": "Bällsta",
      "lon": "18.0715671695455",
      "id": "BÄL",
      "lat": "59.5241155585946"
    },
    {
      "country": "SE",
      "isForPresentation": false,
      "name": "Bällsta",
      "lon": "18.0720755145",
      "id": "XBÄL",
      "lat": "59.5228994638"
    },
    {
      "country": "SE",
      "isForPresentation": false,
      "name": "Bärby",
      "lon": "17.8154782889",
      "id": "XB",
      "lat": "59.8571329546"
    },
    {
      "country": "SE",
      "isForPresentation": false,
      "name": "Callans såg",
      "lon": "15.9930438143767",
      "id": "CAS",
      "lat": "62.5134747434494"
    },
    {
      "country": "SE",
      "isForPresentation": true,
      "name": "Charlottenberg",
      "lon": "12.2992640722931",
      "id": "CG",
      "lat": "59.8831304351449"
    },
    {
      "country": "DK",
      "isForPresentation": true,
      "name": "Copenhagen Airport",
      "lon": "12.649354",
      "id": "DK.CPH",
      "lat": "55.629514"
    },
    {
      "country": "SE",
      "isForPresentation": true,
      "name": "Copenhagen Airport",
      "lon": "12.6751914486",
      "id": "XCPH",
      "lat": "55.6315701843"
    },
    {
      "country": "SE",
      "isForPresentation": false,
      "name": "Copenhagen Airport",
      "lon": "12.6751914486",
      "id": "CPH",
      "lat": "55.6315701843"
    },
    {
      "country": "SE",
      "isForPresentation": false,
      "name": "Dagarn",
      "lon": "15.7170539304405",
      "id": "DN",
      "lat": "59.9080666799543"
    },
    {
      "country": "SE",
      "isForPresentation": false,
      "name": "Daglösen",
      "lon": "14.1914406551167",
      "id": "DGÖ",
      "lat": "59.6421419748581"
    },
    {
      "country": "SE",
      "isForPresentation": false,
      "name": "Dala-Floda",
      "lon": "14.7899654817986",
      "id": "DFL",
      "lat": "60.4887356549155"
    },
    {
      "country": "SE",
      "isForPresentation": false,
      "name": "Dala-Järna",
      "lon": "14.3627104882753",
      "id": "DJ",
      "lat": "60.547672000249"
    },
    {
      "country": "SE",
      "isForPresentation": false,
      "name": "Dala kvarn",
      "lon": "13.4418781256",
      "id": "XDKN",
      "lat": "58.4639537321"
    },
    {
      "country": "SE",
      "isForPresentation": false,
      "name": "Dalgränsen",
      "lon": "16.4534792942388",
      "id": "DGN",
      "lat": "60.3827584096635"
    },
    {
      "country": "SE",
      "isForPresentation": false,
      "name": "Dals Långed",
      "lon": "12.3062475931667",
      "id": "DLD",
      "lat": "58.9234467256267"
    },
    {
      "country": "SE",
      "isForPresentation": false,
      "name": "Dals Rostock",
      "lon": "12.3552910282992",
      "id": "DRT",
      "lat": "58.7134746131949"
    },
    {
      "country": "SE",
      "isForPresentation": false,
      "name": "Dammstorp",
      "lon": "13.2831710124591",
      "id": "DAT",
      "lat": "55.8019030327674"
    },
    {
      "country": "SE",
      "isForPresentation": false,
      "name": "Dannemora",
      "lon": "17.8480196556706",
      "id": "DMA",
      "lat": "60.1960936424034"
    },
    {
      "country": "SE",
      "isForPresentation": false,
      "name": "Degerbäcken",
      "lon": "21.401807299698",
      "id": "DBN",
      "lat": "65.839491693488"
    },
    {
      "country": "SE",
      "isForPresentation": true,
      "name": "Degerfors",
      "lon": "14.4403553330023",
      "id": "DG",
      "lat": "59.2288762764598"
    },
    {
      "country": "SE",
      "isForPresentation": false,
      "name": "Degermyr",
      "lon": "19.605941749242",
      "id": "DGM",
      "lat": "63.8719125929454"
    },
    {
      "country": "SE",
      "isForPresentation": false,
      "name": "Degerön",
      "lon": "15.1518065902147",
      "id": "D",
      "lat": "58.701503560751"
    },
    {
      "country": "SE",
      "isForPresentation": false,
      "name": "Deje",
      "lon": "13.4704683481945",
      "id": "DE",
      "lat": "59.602141992377"
    },
    {
      "country": "SE",
      "isForPresentation": false,
      "name": "Delsbo",
      "lon": "16.5548526485",
      "id": "XDO",
      "lat": "61.7976518259"
    },
    {
      "country": "SE",
      "isForPresentation": true,
      "name": "Derome",
      "lon": "12.3201453451872",
      "id": "DRE",
      "lat": "57.2305586728826"
    },
    {
      "country": "SE",
      "isForPresentation": true,
      "name": "Dingle",
      "lon": "11.5791144406312",
      "id": "DL",
      "lat": "58.5295740903235"
    },
    {
      "country": "SE",
      "isForPresentation": true,
      "name": "Dingtuna",
      "lon": "16.3897789986637",
      "id": "DT",
      "lat": "59.571564423927"
    },
    {
      "country": "SE",
      "isForPresentation": false,
      "name": "Dirhuvden",
      "lon": "12.4508781893",
      "id": "XDIR",
      "lat": "58.0016174153"
    },
    {
      "country": "SE",
      "isForPresentation": true,
      "name": "Diö",
      "lon": "14.2142306091178",
      "id": "DIS",
      "lat": "56.6330857595413"
    },
    {
      "country": "SE",
      "isForPresentation": false,
      "name": "Diö Norra",
      "lon": "14.2211301405075",
      "id": "DIÖ",
      "lat": "56.6360670042619"
    },
    {
      "country": "SE",
      "isForPresentation": false,
      "name": "Djursholms Ekeby",
      "lon": "18.0575768607",
      "id": "XDJE",
      "lat": "59.4129878435"
    },
    {
      "country": "SE",
      "isForPresentation": false,
      "name": "Djursholms Ösby",
      "lon": "18.0578168953",
      "id": "XDJÖ",
      "lat": "59.3968878405"
    },
    {
      "country": "SE",
      "isForPresentation": true,
      "name": "Djurås",
      "lon": "15.1385500566786",
      "id": "DÅ",
      "lat": "60.5600828899017"
    },
    {
      "country": "SE",
      "isForPresentation": false,
      "name": "Dockmyr",
      "lon": "15.7390250752845",
      "id": "DK",
      "lat": "62.9546157293742"
    },
    {
      "country": "SE",
      "isForPresentation": false,
      "name": "Dorotea",
      "lon": "16.4058965153011",
      "id": "DTA",
      "lat": "64.2581771990088"
    },
    {
      "country": "SE",
      "isForPresentation": false,
      "name": "Dorotea camping",
      "lon": "16.3900566832312",
      "id": "DTC",
      "lat": "64.2563450663964"
    },
    {
      "country": "DK",
      "isForPresentation": false,
      "name": "Drogden",
      "lon": "12.7001284231991",
      "id": "ZDRO",
      "lat": "55.6002314026954"
    },
    {
      "country": "SE",
      "isForPresentation": false,
      "name": "Drömme",
      "lon": "18.2201517973212",
      "id": "DÖE",
      "lat": "63.2505104555558"
    },
    {
      "country": "SE",
      "isForPresentation": false,
      "name": "Duvbo",
      "lon": "17.9321969718338",
      "id": "DUO",
      "lat": "59.3707486718185"
    },
    {
      "country": "SE",
      "isForPresentation": true,
      "name": "Duved",
      "lon": "12.9174879554284",
      "id": "DU",
      "lat": "63.389765115711"
    },
    {
      "country": "SE",
      "isForPresentation": false,
      "name": "Dynäs",
      "lon": "17.7376951370785",
      "id": "DNS",
      "lat": "62.9663178920468"
    },
    {
      "country": "SE",
      "isForPresentation": false,
      "name": "Dysjön",
      "lon": "15.5155405747758",
      "id": "DY",
      "lat": "62.6279657046825"
    },
    {
      "country": "SE",
      "isForPresentation": false,
      "name": "Dånviken",
      "lon": "17.7143397451644",
      "id": "DÅN",
      "lat": "59.189898008623"
    },
    {
      "country": "SE",
      "isForPresentation": false,
      "name": "Döljebro",
      "lon": "16.6868700271795",
      "id": "DÖL",
      "lat": "60.9940009455199"
    },
    {
      "country": "SE",
      "isForPresentation": false,
      "name": "Dösjebro",
      "lon": "13.0328995241367",
      "id": "DÖS",
      "lat": "55.8229849220258"
    },
    {
      "country": "SE",
      "isForPresentation": true,
      "name": "Ed",
      "lon": "11.9328723193358",
      "id": "ED",
      "lat": "58.91348999641"
    },
    {
      "country": "SE",
      "isForPresentation": true,
      "name": "Edane",
      "lon": "12.8293413343206",
      "id": "EN",
      "lat": "59.6268090209575"
    },
    {
      "country": "XX",
      "isForPresentation": false,
      "name": "Edsbjörke",
      "lon": "13.1709931638087",
      "id": "EBK",
      "lat": "59.9012524669967"
    },
    {
      "country": "SE",
      "isForPresentation": false,
      "name": "Edsbyn",
      "lon": "15.8209742501633",
      "id": "EDN",
      "lat": "61.3727496042063"
    },
    {
      "country": "SE",
      "isForPresentation": false,
      "name": "Edsbyns södra",
      "lon": "15.8333378482634",
      "id": "EDS",
      "lat": "61.374021109411"
    },
    {
      "country": "SE",
      "isForPresentation": false,
      "name": "Edsbyverken",
      "lon": "15.8432749622083",
      "id": "EDV",
      "lat": "61.3720026792508"
    },
    {
      "country": "SE",
      "isForPresentation": false,
      "name": "Edsvalla",
      "lon": "13.2126316651332",
      "id": "EL",
      "lat": "59.435773105221"
    },
    {
      "country": "SE",
      "isForPresentation": false,
      "name": "Ekebohult",
      "lon": "14.3063777689",
      "id": "XEKH",
      "lat": "57.1906070429"
    },
    {
      "country": "SE",
      "isForPresentation": false,
      "name": "Ekeby",
      "lon": "17.7553140322281",
      "id": "EBY",
      "lat": "59.7769424036703"
    },
    {
      "country": "SE",
      "isForPresentation": false,
      "name": "Eken",
      "lon": "18.5238023704",
      "id": "XEKN",
      "lat": "57.5398417761"
    },
    {
      "country": "SE",
      "isForPresentation": true,
      "name": "Ekenässjön",
      "lon": "15.0189168958605",
      "id": "ESN",
      "lat": "57.4905054152676"
    },
    {
      "country": "XX",
      "isForPresentation": false,
      "name": "Ekeryd",
      "lon": "14.1058803242521",
      "id": "EKY",
      "lat": "57.6094287094481"
    },
    {
      "country": "SE",
      "isForPresentation": false,
      "name": "Ekolsund",
      "lon": "17.3702104669256",
      "id": "EKO",
      "lat": "59.6140626318442"
    },
    {
      "country": "SE",
      "isForPresentation": true,
      "name": "Eksjö",
      "lon": "14.975428354754",
      "id": "EK",
      "lat": "57.6637529785389"
    },
    {
      "country": "SE",
      "isForPresentation": false,
      "name": "Ekskogen",
      "lon": "18.2262437209",
      "id": "XEKG",
      "lat": "59.6390509769"
    },
    {
      "country": "SE",
      "isForPresentation": false,
      "name": "Ekträsk",
      "lon": "19.809644890866",
      "id": "ETK",
      "lat": "64.4961551548701"
    },
    {
      "country": "SE",
      "isForPresentation": false,
      "name": "Eldsberga",
      "lon": "12.9980628388935",
      "id": "EA",
      "lat": "56.5908692105258"
    },
    {
      "country": "SE",
      "isForPresentation": false,
      "name": "Elgaryd",
      "lon": "14.2781135144",
      "id": "XEYD",
      "lat": "57.1788589836"
    },
    {
      "country": "SE",
      "isForPresentation": true,
      "name": "Emmaboda",
      "lon": "15.5349354982897",
      "id": "EM",
      "lat": "56.629789588791"
    },
    {
      "country": "SE",
      "isForPresentation": true,
      "name": "Enafors",
      "lon": "12.3373253662033",
      "id": "ENS",
      "lat": "63.2897788771173"
    },
    {
      "country": "SE",
      "isForPresentation": false,
      "name": "Enebyberg",
      "lon": "18.0510873885",
      "id": "XENB",
      "lat": "59.4258912214"
    },
    {
      "country": "SE",
      "isForPresentation": false,
      "name": "Eneryda",
      "lon": "14.3397039938959",
      "id": "ERA",
      "lat": "56.7078623780483"
    },
    {
      "country": "SE",
      "isForPresentation": true,
      "name": "Enköping",
      "lon": "17.0886564671153",
      "id": "EP",
      "lat": "59.6445798429664"
    },
    {
      "country": "SE",
      "isForPresentation": false,
      "name": "Ensta",
      "lon": "18.0637562575",
      "id": "XESA",
      "lat": "59.4534517093"
    },
    {
      "country": "SE",
      "isForPresentation": false,
      "name": "Enstaberga",
      "lon": "16.8490752482132",
      "id": "EBG",
      "lat": "58.7510141620432"
    },
    {
      "country": "SE",
      "isForPresentation": true,
      "name": "Erikslund",
      "lon": "15.9125596800324",
      "id": "EI",
      "lat": "62.5273896695397"
    },
    {
      "country": "SE",
      "isForPresentation": false,
      "name": "Erikstad",
      "lon": "12.410621514464",
      "id": "ERK",
      "lat": "58.631439905559"
    },
    {
      "country": "SE",
      "isForPresentation": false,
      "name": "Erstaviksbadet",
      "lon": "18.2850698532",
      "id": "XEVB",
      "lat": "59.2729441192"
    },
    {
      "country": "SE",
      "isForPresentation": false,
      "name": "Ervalla",
      "lon": "15.2475859052027",
      "id": "ER",
      "lat": "59.4169834451212"
    },
    {
      "country": "SE",
      "isForPresentation": false,
      "name": "Ervalla NBVJ",
      "lon": "15.2476540938",
      "id": "XERN",
      "lat": "59.4263226194"
    },
    {
      "country": "SE",
      "isForPresentation": true,
      "name": "Eskilstuna C",
      "lon": "16.5054558864377",
      "id": "ET",
      "lat": "59.3693875889667"
    },
    {
      "country": "SE",
      "isForPresentation": true,
      "name": "Eslöv",
      "lon": "13.3053733196633",
      "id": "E",
      "lat": "55.8376813833203"
    },
    {
      "country": "DK",
      "isForPresentation": false,
      "name": "Espergaerde",
      "lon": "12.7001284231991",
      "id": "ZGAE",
      "lat": "55.6002314026954"
    },
    {
      "country": "SE",
      "isForPresentation": false,
      "name": "f.d. Köpingebro",
      "lon": "13.9361881059",
      "id": "ZKÖP",
      "lat": "55.4572759116"
    },
    {
      "country": "SE",
      "isForPresentation": false,
      "name": "Fagerrör",
      "lon": "17.1111741653",
      "id": "XFGR",
      "lat": "57.3126356522"
    },
    {
      "country": "SE",
      "isForPresentation": false,
      "name": "Fagersand",
      "lon": "16.2893948932",
      "id": "XFSD",
      "lat": "57.6956072884"
    },
    {
      "country": "SE",
      "isForPresentation": false,
      "name": "Fagersanna",
      "lon": "14.297844284416",
      "id": "FGS",
      "lat": "58.469294233635"
    },
    {
      "country": "SE",
      "isForPresentation": true,
      "name": "Fagersta C",
      "lon": "15.8154658398985",
      "id": "FGC",
      "lat": "59.9905487516856"
    },
    {
      "country": "SE",
      "isForPresentation": true,
      "name": "Fagersta Norra",
      "lon": "15.7753448696186",
      "id": "FGN",
      "lat": "60.0086419883604"
    },
    {
      "country": "SE",
      "isForPresentation": true,
      "name": "Fagerås",
      "lon": "13.2181750406347",
      "id": "FGÅ",
      "lat": "59.5197774455877"
    },
    {
      "country": "XX",
      "isForPresentation": true,
      "name": "Falerum",
      "lon": "16.2071941694446",
      "id": "FAL",
      "lat": "58.1436384187573"
    },
    {
      "country": "SE",
      "isForPresentation": true,
      "name": "Falkenberg",
      "lon": "12.5087243008777",
      "id": "FABP",
      "lat": "56.9195066400243"
    },
    {
      "country": "SE",
      "isForPresentation": false,
      "name": "Falkenbergs godsstation",
      "lon": "12.4875116725265",
      "id": "FABG",
      "lat": "56.9016379199236"
    },
    {
      "country": "SE",
      "isForPresentation": true,
      "name": "Falköping C",
      "lon": "13.552006166893",
      "id": "F",
      "lat": "58.1757438363858"
    },
    {
      "country": "SE",
      "isForPresentation": false,
      "name": "Falköpings norra",
      "lon": "13.5774517774",
      "id": "FN",
      "lat": "58.1951189402"
    },
    {
      "country": "SE",
      "isForPresentation": true,
      "name": "Falun C",
      "lon": "15.6417266822974",
      "id": "FLN",
      "lat": "60.6032473035118"
    },
    {
      "country": "SE",
      "isForPresentation": false,
      "name": "Faringe",
      "lon": "18.1146586843",
      "id": "XF",
      "lat": "59.9200062873"
    },
    {
      "country": "SE",
      "isForPresentation": false,
      "name": "Farsta strand",
      "lon": "18.1041371060933",
      "id": "FAS",
      "lat": "59.236704958245"
    },
    {
      "country": "SE",
      "isForPresentation": false,
      "name": "Fellingsbro",
      "lon": "15.5950380939042",
      "id": "FEB",
      "lat": "59.4328261436368"
    },
    {
      "country": "XX",
      "isForPresentation": false,
      "name": "Filipstad",
      "lon": "14.1594702905844",
      "id": "FID",
      "lat": "59.7083494170406"
    },
    {
      "country": "SE",
      "isForPresentation": false,
      "name": "Fillan",
      "lon": "17.3819771187149",
      "id": "FIL",
      "lat": "62.4261869714432"
    },
    {
      "country": "SE",
      "isForPresentation": true,
      "name": "Filsbäck",
      "lon": "13.2472010971989",
      "id": "FIÄ",
      "lat": "58.4931698136594"
    },
    {
      "country": "SE",
      "isForPresentation": false,
      "name": "Finja",
      "lon": "13.6954895741371",
      "id": "FIN",
      "lat": "56.1696727291993"
    },
    {
      "country": "SE",
      "isForPresentation": false,
      "name": "Finkelboda",
      "lon": "16.4329683115",
      "id": "XFIA",
      "lat": "60.8599557110"
    },
    {
      "country": "SE",
      "isForPresentation": false,
      "name": "Finnerödja",
      "lon": "14.4429159147909",
      "id": "FA",
      "lat": "58.9261915025442"
    },
    {
      "country": "SE",
      "isForPresentation": false,
      "name": "Finnforsfallet",
      "lon": "20.3331017714145",
      "id": "FFS",
      "lat": "64.7773741984548"
    },
    {
      "country": "SE",
      "isForPresentation": false,
      "name": "Finspång",
      "lon": "15.7754947556367",
      "id": "FG",
      "lat": "58.7071986075267"
    },
    {
      "country": "SE",
      "isForPresentation": false,
      "name": "Fiskeby",
      "lon": "16.1239245188036",
      "id": "FI",
      "lat": "58.6050746078561"
    },
    {
      "country": "SE",
      "isForPresentation": false,
      "name": "Fisksätra",
      "lon": "18.2560148293",
      "id": "XFSÄ",
      "lat": "59.2941205020"
    },
    {
      "country": "SE",
      "isForPresentation": false,
      "name": "Fiskåsen",
      "lon": "17.1262872097",
      "id": "XFIE",
      "lat": "57.3184193490"
    },
    {
      "country": "SE",
      "isForPresentation": false,
      "name": "Fjälkinge",
      "lon": "14.2980792089501",
      "id": "FKI",
      "lat": "56.0414404947888"
    },
    {
      "country": "SE",
      "isForPresentation": true,
      "name": "Fjällåsen",
      "lon": "20.0937032011069",
      "id": "FJÅ",
      "lat": "67.5193569685257"
    },
    {
      "country": "SE",
      "isForPresentation": false,
      "name": "Flackarp",
      "lon": "13.1581100635269",
      "id": "FLP",
      "lat": "55.6866858584218"
    },
    {
      "country": "SE",
      "isForPresentation": false,
      "name": "Flaten",
      "lon": "15.6719445240",
      "id": "XFLA",
      "lat": "57.3653252013"
    },
    {
      "country": "SE",
      "isForPresentation": true,
      "name": "Flemingsberg",
      "lon": "17.947841782768",
      "id": "FLB",
      "lat": "59.2192614877336"
    },
    {
      "country": "SE",
      "isForPresentation": true,
      "name": "Flen",
      "lon": "16.5852782163976",
      "id": "FLE",
      "lat": "59.0569465905644"
    },
    {
      "country": "SE",
      "isForPresentation": false,
      "name": "Flens övre",
      "lon": "16.5948732844727",
      "id": "FSÖ",
      "lat": "59.0615535567703"
    },
    {
      "country": "SE",
      "isForPresentation": false,
      "name": "Flisby",
      "lon": "14.8007350113884",
      "id": "FLS",
      "lat": "57.7877451696623"
    },
    {
      "country": "SE",
      "isForPresentation": false,
      "name": "Fliskär",
      "lon": "17.2460575920234",
      "id": "FÄR",
      "lat": "60.6864833744813"
    },
    {
      "country": "SE",
      "isForPresentation": true,
      "name": "Floby",
      "lon": "13.3322272061583",
      "id": "FBY",
      "lat": "58.1387436114596"
    },
    {
      "country": "SE",
      "isForPresentation": true,
      "name": "Floda",
      "lon": "12.3614818135491",
      "id": "FD",
      "lat": "57.8100025538908"
    },
    {
      "country": "SE",
      "isForPresentation": false,
      "name": "Flodala",
      "lon": "13.5217453626905",
      "id": "FAA",
      "lat": "57.4706514061354"
    },
    {
      "country": "SE",
      "isForPresentation": false,
      "name": "Flädie",
      "lon": "13.0739951128543",
      "id": "FL",
      "lat": "55.7236894235928"
    },
    {
      "country": "SE",
      "isForPresentation": false,
      "name": "Folkesta",
      "lon": "16.4143178213831",
      "id": "FOK",
      "lat": "59.4027407768235"
    },
    {
      "country": "SE",
      "isForPresentation": false,
      "name": "Foodia",
      "lon": "13.1853655988122",
      "id": "FOO",
      "lat": "55.6302485065808"
    },
    {
      "country": "SE",
      "isForPresentation": true,
      "name": "Fors",
      "lon": "16.3115206925692",
      "id": "FS",
      "lat": "60.2064994802923"
    },
    {
      "country": "SE",
      "isForPresentation": false,
      "name": "Forsa",
      "lon": "16.9455954666",
      "id": "XFSA",
      "lat": "61.7344376229"
    },
    {
      "country": "SE",
      "isForPresentation": false,
      "name": "Forsbacka",
      "lon": "16.8884612117468",
      "id": "FB",
      "lat": "60.6397424980983"
    },
    {
      "country": "SE",
      "isForPresentation": true,
      "name": "Forserum",
      "lon": "14.474112532228",
      "id": "FM",
      "lat": "57.6978566292233"
    },
    {
      "country": "SE",
      "isForPresentation": true,
      "name": "Forsheda",
      "lon": "13.8329175006726",
      "id": "FOD",
      "lat": "57.1632729634924"
    },
    {
      "country": "SE",
      "isForPresentation": true,
      "name": "Forshem",
      "lon": "13.4918263405899",
      "id": "FHM",
      "lat": "58.6180831722945"
    },
    {
      "country": "SE",
      "isForPresentation": false,
      "name": "Forsmo",
      "lon": "17.1795472940428",
      "id": "FSM",
      "lat": "63.26394351745"
    },
    {
      "country": "SE",
      "isForPresentation": false,
      "name": "Forsmöllan",
      "lon": "13.1815813800",
      "id": "XFMÖ",
      "lat": "56.1172593316"
    },
    {
      "country": "SE",
      "isForPresentation": false,
      "name": "Fosieby",
      "lon": "13.0314729846625",
      "id": "FSB",
      "lat": "55.562257666629"
    },
    {
      "country": "SE",
      "isForPresentation": true,
      "name": "Framnäs city",
      "lon": "13.1473122304793",
      "id": "FC",
      "lat": "58.5077120933878"
    },
    {
      "country": "XX",
      "isForPresentation": false,
      "name": "Fredriksdal",
      "lon": "14.5944468901413",
      "id": "FDL",
      "lat": "57.6158745842098"
    },
    {
      "country": "SE",
      "isForPresentation": false,
      "name": "Fredriksfors",
      "lon": "16.6203185626",
      "id": "XFOS",
      "lat": "61.7857343023"
    },
    {
      "country": "SE",
      "isForPresentation": false,
      "name": "Fredrikslund",
      "lon": "15.9506026989515",
      "id": "FRE",
      "lat": "56.7375031538827"
    },
    {
      "country": "SE",
      "isForPresentation": false,
      "name": "Frillesås",
      "lon": "12.169561936607",
      "id": "FÅ",
      "lat": "57.3186404198786"
    },
    {
      "country": "SE",
      "isForPresentation": false,
      "name": "Friluftsgården",
      "lon": "12.2516320797652",
      "id": "FLGD",
      "lat": "58.9507813332602"
    },
    {
      "country": "SE",
      "isForPresentation": false,
      "name": "Frinnaryd",
      "lon": "14.8218951051947",
      "id": "FRD",
      "lat": "57.9373943188769"
    },
    {
      "country": "SE",
      "isForPresentation": true,
      "name": "Fristad",
      "lon": "13.0086261339595",
      "id": "FRA",
      "lat": "57.8274249814999"
    },
    {
      "country": "SE",
      "isForPresentation": true,
      "name": "Fritsla",
      "lon": "12.7897675298165",
      "id": "FRL",
      "lat": "57.5577430284481"
    },
    {
      "country": "SE",
      "isForPresentation": false,
      "name": "Frufällan",
      "lon": "12.9812269572555",
      "id": "FFL",
      "lat": "57.7770905431451"
    },
    {
      "country": "XX",
      "isForPresentation": true,
      "name": "Frykåsen",
      "lon": "13.1847908245694",
      "id": "FRÅ",
      "lat": "59.6264562267624"
    },
    {
      "country": "SE",
      "isForPresentation": false,
      "name": "Frånö",
      "lon": "17.8276863203596",
      "id": "FNÖ",
      "lat": "62.9061539898095"
    },
    {
      "country": "SE",
      "isForPresentation": false,
      "name": "Frändefors",
      "lon": "12.2797194839173",
      "id": "FDF",
      "lat": "58.4942545139603"
    },
    {
      "country": "SE",
      "isForPresentation": true,
      "name": "Fränsta",
      "lon": "16.1674488383153",
      "id": "FT",
      "lat": "62.4960125992971"
    },
    {
      "country": "SE",
      "isForPresentation": false,
      "name": "Frösunda",
      "lon": "18.1703072979",
      "id": "XFSU",
      "lat": "59.6240970120"
    },
    {
      "country": "SE",
      "isForPresentation": true,
      "name": "Frövi",
      "lon": "15.3636943577409",
      "id": "FV",
      "lat": "59.4676199660851"
    },
    {
      "country": "SE",
      "isForPresentation": false,
      "name": "Funbo",
      "lon": "17.8589065385",
      "id": "XFB",
      "lat": "59.8494939151"
    },
    {
      "country": "SE",
      "isForPresentation": false,
      "name": "Furet",
      "lon": "12.8885213991908",
      "id": "FUR",
      "lat": "56.6847088816981"
    },
    {
      "country": "SE",
      "isForPresentation": false,
      "name": "Furudal",
      "lon": "15.1349702741119",
      "id": "FDA",
      "lat": "61.1696996627744"
    },
    {
      "country": "SE",
      "isForPresentation": true,
      "name": "Furuvik",
      "lon": "17.3296824343404",
      "id": "FVK",
      "lat": "60.6514163923585"
    },
    {
      "country": "SE",
      "isForPresentation": false,
      "name": "Fyrislund",
      "lon": "17.6821027918",
      "id": "XFL",
      "lat": "59.8584270235"
    },
    {
      "country": "SE",
      "isForPresentation": false,
      "name": "Fågelsjö",
      "lon": "14.6820784511285",
      "id": "FEÖ",
      "lat": "61.8016045676964"
    },
    {
      "country": "SE",
      "isForPresentation": false,
      "name": "Fågelsta",
      "lon": "15.0393820129218",
      "id": "FGL",
      "lat": "58.4586445587241"
    },
    {
      "country": "SE",
      "isForPresentation": false,
      "name": "Fåker",
      "lon": "14.5743925928155",
      "id": "FKR",
      "lat": "62.9932005922009"
    },
    {
      "country": "SE",
      "isForPresentation": false,
      "name": "Fållinge",
      "lon": "13.4351717563161",
      "id": "FÅL",
      "lat": "57.1689340717084"
    },
    {
      "country": "SE",
      "isForPresentation": false,
      "name": "Fångsjöbacken",
      "lon": "16.7809633821184",
      "id": "FGÖ",
      "lat": "63.054042233977"
    },
    {
      "country": "SE",
      "isForPresentation": false,
      "name": "Fårhult",
      "lon": "16.4200802547",
      "id": "XFÅT",
      "lat": "57.7377073682"
    },
    {
      "country": "SE",
      "isForPresentation": false,
      "name": "Fästad",
      "lon": "16.3740085821125",
      "id": "FAD",
      "lat": "57.9439623131784"
    },
    {
      "country": "SE",
      "isForPresentation": false,
      "name": "Förslöv",
      "lon": "12.8095904600633",
      "id": "FÖR",
      "lat": "56.3490667855281"
    },
    {
      "country": "SE",
      "isForPresentation": true,
      "name": "Gagnef",
      "lon": "15.081034635635",
      "id": "GNF",
      "lat": "60.5987555551909"
    },
    {
      "country": "SE",
      "isForPresentation": false,
      "name": "Galoppfältet",
      "lon": "18.0844381046",
      "id": "XGPF",
      "lat": "59.4468180584"
    },
    {
      "country": "SE",
      "isForPresentation": false,
      "name": "Gamlarp",
      "lon": "14.6868405584522",
      "id": "GMP",
      "lat": "57.6807940456712"
    },
    {
      "country": "SE",
      "isForPresentation": false,
      "name": "Gamla Tortuna",
      "lon": "16.7188951940576",
      "id": "GTTU",
      "lat": "59.6738488374358"
    },
    {
      "country": "XX",
      "isForPresentation": true,
      "name": "Gamleby",
      "lon": "16.4096369955743",
      "id": "GAL",
      "lat": "57.8969934989969"
    },
    {
      "country": "SE",
      "isForPresentation": true,
      "name": "Gamlestaden",
      "lon": "12.0044597359418",
      "id": "GAS",
      "lat": "57.7360700822839"
    },
    {
      "country": "SE",
      "isForPresentation": false,
      "name": "Gammelstad",
      "lon": "22.0261206559387",
      "id": "GST",
      "lat": "65.641023683478"
    },
    {
      "country": "SE",
      "isForPresentation": false,
      "name": "Gantofta",
      "lon": "12.809001245834",
      "id": "GAN",
      "lat": "55.9890456096634"
    },
    {
      "country": "SE",
      "isForPresentation": false,
      "name": "Garnudden",
      "lon": "17.7708146868774",
      "id": "GAU",
      "lat": "59.193351221494"
    },
    {
      "country": "SE",
      "isForPresentation": false,
      "name": "Garsås",
      "lon": "14.8192617947022",
      "id": "GSÅ",
      "lat": "60.913301048025"
    },
    {
      "country": "SE",
      "isForPresentation": false,
      "name": "Gastsjön",
      "lon": "15.8564634473478",
      "id": "GSN",
      "lat": "62.9582879491969"
    },
    {
      "country": "SE",
      "isForPresentation": false,
      "name": "Geijersdal",
      "lon": "13.9669225897472",
      "id": "GDL",
      "lat": "59.5984380014272"
    },
    {
      "country": "SE",
      "isForPresentation": true,
      "name": "Gemla",
      "lon": "14.6462490340332",
      "id": "GM",
      "lat": "56.8707651664748"
    },
    {
      "country": "SE",
      "isForPresentation": false,
      "name": "Genevad",
      "lon": "13.0318020589744",
      "id": "GND",
      "lat": "56.5709642387721"
    },
    {
      "country": "SE",
      "isForPresentation": false,
      "name": "Geografiska polcirkeln",
      "lon": "19.9122615708658",
      "id": "GPC",
      "lat": "66.5533160073007"
    },
    {
      "country": "SE",
      "isForPresentation": false,
      "name": "Getå",
      "lon": "16.2634000999197",
      "id": "GTÅ",
      "lat": "58.6665831905677"
    },
    {
      "country": "SE",
      "isForPresentation": false,
      "name": "Gideåbacka",
      "lon": "19.0839475726019",
      "id": "GIA",
      "lat": "63.3376596349897"
    },
    {
      "country": "SE",
      "isForPresentation": false,
      "name": "Gimarp",
      "lon": "14.2711251069",
      "id": "XGIM",
      "lat": "57.1742190327"
    },
    {
      "country": "SE",
      "isForPresentation": false,
      "name": "Gimarpsby",
      "lon": "14.2611064875",
      "id": "XGBY",
      "lat": "57.1657159203"
    },
    {
      "country": "SE",
      "isForPresentation": false,
      "name": "Gimo",
      "lon": "18.1841911090755",
      "id": "GMO",
      "lat": "60.1759323770163"
    },
    {
      "country": "SE",
      "isForPresentation": false,
      "name": "Gimonäs",
      "lon": "20.3158931749901",
      "id": "GIM",
      "lat": "63.7873110158395"
    },
    {
      "country": "SE",
      "isForPresentation": false,
      "name": "Gistad",
      "lon": "15.914390080018",
      "id": "GI",
      "lat": "58.4784659314756"
    },
    {
      "country": "SE",
      "isForPresentation": false,
      "name": "Glommersträsk",
      "lon": "19.6079160393",
      "id": "GLK",
      "lat": "65.2675946808"
    },
    {
      "country": "SE",
      "isForPresentation": false,
      "name": "Glumslöv",
      "lon": "12.8141720366635",
      "id": "GLV",
      "lat": "55.9440115112687"
    },
    {
      "country": "SE",
      "isForPresentation": true,
      "name": "Gnarp",
      "lon": "17.2429183128328",
      "id": "GNP",
      "lat": "62.0553507271423"
    },
    {
      "country": "SE",
      "isForPresentation": true,
      "name": "Gnesta",
      "lon": "17.3128411185534",
      "id": "GN",
      "lat": "59.0485492745412"
    },
    {
      "country": "SE",
      "isForPresentation": true,
      "name": "Gnosjö",
      "lon": "13.7349999652827",
      "id": "GNÖ",
      "lat": "57.3585171431863"
    },
    {
      "country": "SE",
      "isForPresentation": false,
      "name": "Gnötteln",
      "lon": "15.8966733518",
      "id": "XGNL",
      "lat": "57.5200553009"
    },
    {
      "country": "SE",
      "isForPresentation": false,
      "name": "Godegård",
      "lon": "15.1651635155179",
      "id": "GO",
      "lat": "58.7453056741044"
    },
    {
      "country": "SE",
      "isForPresentation": false,
      "name": "Gottne",
      "lon": "18.3906890485826",
      "id": "GE",
      "lat": "63.4357186227229"
    },
    {
      "country": "SE",
      "isForPresentation": false,
      "name": "Granbergsdal",
      "lon": "14.6010298603767",
      "id": "GR",
      "lat": "59.4003814709376"
    },
    {
      "country": "SE",
      "isForPresentation": false,
      "name": "Graninge",
      "lon": "16.8609539372598",
      "id": "GA",
      "lat": "63.0900028103396"
    },
    {
      "country": "SE",
      "isForPresentation": false,
      "name": "Gransjö",
      "lon": "21.4080058869834",
      "id": "GRS",
      "lat": "66.0639253991969"
    },
    {
      "country": "SE",
      "isForPresentation": false,
      "name": "Granstanda",
      "lon": "16.3660549068593",
      "id": "GAD",
      "lat": "60.5847805051392"
    },
    {
      "country": "SE",
      "isForPresentation": false,
      "name": "Grevaryd",
      "lon": "14.5888818280996",
      "id": "GRD",
      "lat": "57.1498527467688"
    },
    {
      "country": "SE",
      "isForPresentation": false,
      "name": "Grevie",
      "lon": "12.7834433264053",
      "id": "GVE",
      "lat": "56.391180365213"
    },
    {
      "country": "SE",
      "isForPresentation": false,
      "name": "Grillby",
      "lon": "17.2339929630143",
      "id": "GIB",
      "lat": "59.6289606295264"
    },
    {
      "country": "SE",
      "isForPresentation": false,
      "name": "Grimstorp",
      "lon": "14.6971634585313",
      "id": "GT",
      "lat": "57.5568406023617"
    },
    {
      "country": "SE",
      "isForPresentation": false,
      "name": "Grimsås",
      "lon": "13.5436215965961",
      "id": "GRM",
      "lat": "57.4824144888485"
    },
    {
      "country": "SE",
      "isForPresentation": false,
      "name": "Gripenberg",
      "lon": "14.8650177958243",
      "id": "GP",
      "lat": "57.9985976376419"
    },
    {
      "country": "SE",
      "isForPresentation": false,
      "name": "Gripsholmsviken",
      "lon": "17.2078599787",
      "id": "XGHN",
      "lat": "59.2576137152"
    },
    {
      "country": "SE",
      "isForPresentation": true,
      "name": "Grums",
      "lon": "13.1137647545891",
      "id": "GMS",
      "lat": "59.3530015044991"
    },
    {
      "country": "SE",
      "isForPresentation": false,
      "name": "Grundbro",
      "lon": "17.1022369053796",
      "id": "GRU",
      "lat": "59.2903908083262"
    },
    {
      "country": "SE",
      "isForPresentation": false,
      "name": "Grycksbo",
      "lon": "15.4802615426697",
      "id": "GYO",
      "lat": "60.6874698949101"
    },
    {
      "country": "XX",
      "isForPresentation": true,
      "name": "Grythyttan",
      "lon": "14.5304854323183",
      "id": "GHY",
      "lat": "59.7038422771185"
    },
    {
      "country": "SE",
      "isForPresentation": false,
      "name": "Grythyttans norra",
      "lon": "14.5150340125796",
      "id": "GHYN",
      "lat": "59.73887919131"
    },
    {
      "country": "SE",
      "isForPresentation": false,
      "name": "Gryttje",
      "lon": "17.2807345112313",
      "id": "GRY",
      "lat": "62.0717495082617"
    },
    {
      "country": "SE",
      "isForPresentation": false,
      "name": "Gräfsnäs",
      "lon": "12.4904591663",
      "id": "XGR",
      "lat": "58.0805180497"
    },
    {
      "country": "SE",
      "isForPresentation": true,
      "name": "Grängesberg",
      "lon": "15.0034320838631",
      "id": "GG",
      "lat": "60.0750375136206"
    },
    {
      "country": "SE",
      "isForPresentation": false,
      "name": "Grängesbergs malmbangård",
      "lon": "14.9816958916498",
      "id": "GGM",
      "lat": "60.0636147905807"
    },
    {
      "country": "SE",
      "isForPresentation": false,
      "name": "Gräsberg",
      "lon": "15.2232506534518",
      "id": "GÄG",
      "lat": "60.2242972016832"
    },
    {
      "country": "SE",
      "isForPresentation": true,
      "name": "Grästorp",
      "lon": "12.6857774448317",
      "id": "GOP",
      "lat": "58.3345934306473"
    },
    {
      "country": "SE",
      "isForPresentation": false,
      "name": "Gröndalsviken",
      "lon": "17.9317290232928",
      "id": "GDV",
      "lat": "58.8992532002635"
    },
    {
      "country": "SE",
      "isForPresentation": false,
      "name": "Grönåsen",
      "lon": "17.3894954094766",
      "id": "GNÅ",
      "lat": "63.3355529375859"
    },
    {
      "country": "SE",
      "isForPresentation": false,
      "name": "Grötingen",
      "lon": "15.4847265449668",
      "id": "GRÖ",
      "lat": "62.8540056434872"
    },
    {
      "country": "SE",
      "isForPresentation": false,
      "name": "Gubbero",
      "lon": "11.998249622918",
      "id": "GRO",
      "lat": "57.7092203475262"
    },
    {
      "country": "NO",
      "isForPresentation": false,
      "name": "Gudå",
      "lon": "12.0974095219406",
      "id": "XGU",
      "lat": "63.3158078346593"
    },
    {
      "country": "SE",
      "isForPresentation": false,
      "name": "Gula huset",
      "lon": "18.0043247969364",
      "id": "GHU",
      "lat": "59.3754503304677"
    },
    {
      "country": "SE",
      "isForPresentation": false,
      "name": "Gullberna",
      "lon": "15.6143366275286",
      "id": "GUA",
      "lat": "56.1876088078366"
    },
    {
      "country": "SE",
      "isForPresentation": false,
      "name": "Gullringen",
      "lon": "15.701300301253",
      "id": "GNG",
      "lat": "57.8049695127455"
    },
    {
      "country": "SE",
      "isForPresentation": false,
      "name": "Gullspång",
      "lon": "14.1029595096215",
      "id": "GSP",
      "lat": "58.9853172460045"
    },
    {
      "country": "SE",
      "isForPresentation": false,
      "name": "Gullträsk",
      "lon": "21.1910168027753",
      "id": "GLT",
      "lat": "66.1955985761257"
    },
    {
      "country": "SE",
      "isForPresentation": false,
      "name": "Gunnarn",
      "lon": "17.6749418210237",
      "id": "GUN",
      "lat": "65.0023050509824"
    },
    {
      "country": "SE",
      "isForPresentation": false,
      "name": "Gunnarsbyn",
      "lon": "12.9063606212873",
      "id": "GUY",
      "lat": "59.6254480670702"
    },
    {
      "country": "SE",
      "isForPresentation": false,
      "name": "Gunnesbo",
      "lon": "13.168516644924",
      "id": "GNB",
      "lat": "55.7257554997003"
    },
    {
      "country": "SE",
      "isForPresentation": false,
      "name": "Gunsen",
      "lon": "21.0978814148155",
      "id": "GSE",
      "lat": "64.7178819504734"
    },
    {
      "country": "SE",
      "isForPresentation": false,
      "name": "Gunsta",
      "lon": "17.8342038008",
      "id": "XGA",
      "lat": "59.8527956428"
    },
    {
      "country": "SE",
      "isForPresentation": false,
      "name": "Gussi",
      "lon": "17.0964354806675",
      "id": "GUI",
      "lat": "61.2345399005109"
    },
    {
      "country": "SE",
      "isForPresentation": false,
      "name": "Gustafs",
      "lon": "15.5947169651345",
      "id": "GTF",
      "lat": "60.4013691520206"
    },
    {
      "country": "SE",
      "isForPresentation": false,
      "name": "Gyllebosjö",
      "lon": "14.2113615661",
      "id": "XGYB",
      "lat": "55.5975350686"
    },
    {
      "country": "SE",
      "isForPresentation": false,
      "name": "Gyttorp",
      "lon": "14.9712263985663",
      "id": "GYT",
      "lat": "59.5016629792161"
    },
    {
      "country": "SE",
      "isForPresentation": false,
      "name": "Gyttorp",
      "lon": "14.9712263986",
      "id": "XGYT",
      "lat": "59.5016629792"
    },
    {
      "country": "SE",
      "isForPresentation": false,
      "name": "Gålnäs",
      "lon": "18.6082239439966",
      "id": "GÅN",
      "lat": "63.2818778176136"
    },
    {
      "country": "SE",
      "isForPresentation": false,
      "name": "Gångbron",
      "lon": "18.0193355641692",
      "id": "GÅ",
      "lat": "59.3468241256401"
    },
    {
      "country": "SE",
      "isForPresentation": true,
      "name": "Gårdsjö",
      "lon": "14.3338023813323",
      "id": "GDÖ",
      "lat": "58.872130484702"
    },
    {
      "country": "SE",
      "isForPresentation": false,
      "name": "Gårdsjön",
      "lon": "17.3789369745797",
      "id": "GÖN",
      "lat": "62.1984377398357"
    },
    {
      "country": "SE",
      "isForPresentation": false,
      "name": "Gårdveda",
      "lon": "15.7548355342",
      "id": "XGÅV",
      "lat": "57.3822022534"
    },
    {
      "country": "SE",
      "isForPresentation": false,
      "name": "Gåshaga",
      "lon": "18.2279022474",
      "id": "WGÅH",
      "lat": "59.3567235392"
    },
    {
      "country": "SE",
      "isForPresentation": false,
      "name": "Gåshaga brygga",
      "lon": "18.2339008158",
      "id": "WGÅB",
      "lat": "59.3568713614"
    },
    {
      "country": "SE",
      "isForPresentation": false,
      "name": "Gåsträsken",
      "lon": "22.3477112098388",
      "id": "GEN",
      "lat": "66.0471403831779"
    },
    {
      "country": "SE",
      "isForPresentation": false,
      "name": "Gåvetorp",
      "lon": "14.5793651823883",
      "id": "GÅP",
      "lat": "56.9424635839947"
    },
    {
      "country": "SE",
      "isForPresentation": false,
      "name": "Gäddmyr",
      "lon": "20.1929925949087",
      "id": "GY",
      "lat": "67.679482795194"
    },
    {
      "country": "SE",
      "isForPresentation": true,
      "name": "Gällivare",
      "lon": "20.6510744970046",
      "id": "GV",
      "lat": "67.1333248854923"
    },
    {
      "country": "SE",
      "isForPresentation": true,
      "name": "Gällö",
      "lon": "15.2294994855898",
      "id": "GÖ",
      "lat": "62.9112338192538"
    },
    {
      "country": "SE",
      "isForPresentation": false,
      "name": "Gärdala",
      "lon": "15.7148207556455",
      "id": "GÄD",
      "lat": "58.1764140110752"
    },
    {
      "country": "SE",
      "isForPresentation": false,
      "name": "Gärsnäs",
      "lon": "14.1815566080188",
      "id": "GSS",
      "lat": "55.546497527575"
    },
    {
      "country": "SE",
      "isForPresentation": true,
      "name": "Gävle C",
      "lon": "17.1517500228729",
      "id": "GÄ",
      "lat": "60.6760861303328"
    },
    {
      "country": "SE",
      "isForPresentation": false,
      "name": "Gävle fordonsmagasinet",
      "lon": "17.1517500229",
      "id": "GÄ.F",
      "lat": "60.6760861303"
    },
    {
      "country": "SE",
      "isForPresentation": false,
      "name": "Gävle gasklockorna",
      "lon": "17.1517500229",
      "id": "GÄ.G",
      "lat": "60.6760861303"
    },
    {
      "country": "SE",
      "isForPresentation": false,
      "name": "Gävle godsbangård",
      "lon": "17.1556086634838",
      "id": "GÄB",
      "lat": "60.6812154608194"
    },
    {
      "country": "SE",
      "isForPresentation": false,
      "name": "Gävle hamn",
      "lon": "17.1517500229",
      "id": "GÄ.H",
      "lat": "60.6760861303"
    },
    {
      "country": "SE",
      "isForPresentation": false,
      "name": "Gävle järnvägsmuseum",
      "lon": "17.1517500229",
      "id": "GÄ.J",
      "lat": "60.6760861303"
    },
    {
      "country": "SE",
      "isForPresentation": false,
      "name": "Göringen",
      "lon": "15.3732363468195",
      "id": "GRN",
      "lat": "61.2262253234658"
    },
    {
      "country": "SE",
      "isForPresentation": true,
      "name": "Göteborg C",
      "lon": "11.9738943376447",
      "id": "G",
      "lat": "57.708900773272"
    },
    {
      "country": "SE",
      "isForPresentation": false,
      "name": "Göteborg Combiterminal",
      "lon": "11.9922123390585",
      "id": "GBCO",
      "lat": "57.7176243387586"
    },
    {
      "country": "SE",
      "isForPresentation": false,
      "name": "Göteborg Kville",
      "lon": "11.9825719270419",
      "id": "GK",
      "lat": "57.7272993695498"
    },
    {
      "country": "SE",
      "isForPresentation": false,
      "name": "Göteborg Marieholm",
      "lon": "12.0049514457567",
      "id": "GBM",
      "lat": "57.7354076400615"
    },
    {
      "country": "SE",
      "isForPresentation": false,
      "name": "Göteborg Skandiahamnen",
      "lon": "11.8592415168613",
      "id": "GSH",
      "lat": "57.699347011908"
    },
    {
      "country": "SE",
      "isForPresentation": false,
      "name": "Göteborgs norra",
      "lon": "11.9922123390585",
      "id": "GB",
      "lat": "57.7176243387586"
    },
    {
      "country": "SE",
      "isForPresentation": false,
      "name": "Göteborg Sävenäs",
      "lon": "12.0186184662148",
      "id": "GSV",
      "lat": "57.7247293969754"
    },
    {
      "country": "SE",
      "isForPresentation": false,
      "name": "Göteborg Volvo",
      "lon": "11.8225990599451",
      "id": "GVO",
      "lat": "57.7257026010819"
    },
    {
      "country": "SE",
      "isForPresentation": true,
      "name": "Habo",
      "lon": "14.0769505789793",
      "id": "HO",
      "lat": "57.906393124253"
    },
    {
      "country": "SE",
      "isForPresentation": false,
      "name": "Hackås",
      "lon": "14.5221676240099",
      "id": "HKS",
      "lat": "62.9242005041217"
    },
    {
      "country": "SE",
      "isForPresentation": false,
      "name": "Hagalund",
      "lon": "18.0056118348119",
      "id": "HGL",
      "lat": "59.3720868285043"
    },
    {
      "country": "SE",
      "isForPresentation": false,
      "name": "Hagaström",
      "lon": "17.0680961948826",
      "id": "HG",
      "lat": "60.6704166915538"
    },
    {
      "country": "SE",
      "isForPresentation": false,
      "name": "Hagge",
      "lon": "15.3100461501729",
      "id": "HGE",
      "lat": "60.1313778203711"
    },
    {
      "country": "NO",
      "isForPresentation": false,
      "name": "Halden",
      "lon": "11.383925",
      "id": "NO.HLD",
      "lat": "59.120411"
    },
    {
      "country": "SE",
      "isForPresentation": false,
      "name": "Hallinden",
      "lon": "11.5278386143978",
      "id": "HAL",
      "lat": "58.4594677402775"
    },
    {
      "country": "SE",
      "isForPresentation": true,
      "name": "Hallsberg",
      "lon": "15.1112478014609",
      "id": "HPBG",
      "lat": "59.0671090561714"
    },
    {
      "country": "SE",
      "isForPresentation": false,
      "name": "Hallsberg ersättningsbuss hpl 1",
      "lon": "15.1112478014609",
      "id": "HERS",
      "lat": "59.0671090561714"
    },
    {
      "country": "SE",
      "isForPresentation": false,
      "name": "Hallsberg Posten",
      "lon": "15.0462863547811",
      "id": "HPN",
      "lat": "59.0552043560958"
    },
    {
      "country": "SE",
      "isForPresentation": false,
      "name": "Hallsbergs rangerbangård",
      "lon": "15.059332683087",
      "id": "HRBG",
      "lat": "59.0586565623175"
    },
    {
      "country": "SE",
      "isForPresentation": true,
      "name": "Hallstahammar",
      "lon": "16.220194421042",
      "id": "HH",
      "lat": "59.6146559252741"
    },
    {
      "country": "SE",
      "isForPresentation": false,
      "name": "Hallstavik",
      "lon": "18.5958167239588",
      "id": "HAK",
      "lat": "60.0507687808495"
    },
    {
      "country": "SE",
      "isForPresentation": false,
      "name": "Hallviken",
      "lon": "15.4739987789794",
      "id": "HVN",
      "lat": "63.7258832958543"
    },
    {
      "country": "SE",
      "isForPresentation": true,
      "name": "Halmstad C",
      "lon": "12.8648189655792",
      "id": "HD",
      "lat": "56.6696029119961"
    },
    {
      "country": "SE",
      "isForPresentation": false,
      "name": "Halmstad rangerbangård",
      "lon": "12.8862876566538",
      "id": "HDR",
      "lat": "56.6534702432019"
    },
    {
      "country": "SE",
      "isForPresentation": false,
      "name": "Hammar",
      "lon": "17.7632521893831",
      "id": "HMR",
      "lat": "63.0173106768798"
    },
    {
      "country": "SE",
      "isForPresentation": false,
      "name": "Hamra",
      "lon": "12.3104708921201",
      "id": "HAA",
      "lat": "57.0790768817465"
    },
    {
      "country": "SE",
      "isForPresentation": false,
      "name": "Hamrångefjärden",
      "lon": "17.0625378782524",
      "id": "HFJ",
      "lat": "60.9011047673124"
    },
    {
      "country": "SE",
      "isForPresentation": false,
      "name": "Hanaskog",
      "lon": "14.093180184283",
      "id": "HSK",
      "lat": "56.1583593501009"
    },
    {
      "country": "SE",
      "isForPresentation": false,
      "name": "Handen station",
      "lon": "18.1340833918127",
      "id": "HND",
      "lat": "59.1662851250908"
    },
    {
      "country": "SE",
      "isForPresentation": false,
      "name": "Haparanda",
      "lon": "24.1311333859202",
      "id": "HP",
      "lat": "65.8281113738111"
    },
    {
      "country": "SE",
      "isForPresentation": false,
      "name": "Harasjön",
      "lon": "17.8409431214209",
      "id": "HAN",
      "lat": "63.1734175510509"
    },
    {
      "country": "SE",
      "isForPresentation": false,
      "name": "Hargshamn",
      "lon": "18.4727781622974",
      "id": "HRM",
      "lat": "60.1691903360841"
    },
    {
      "country": "SE",
      "isForPresentation": false,
      "name": "Harmånger",
      "lon": "17.2688783055588",
      "id": "HÅG",
      "lat": "61.9035148292181"
    },
    {
      "country": "SE",
      "isForPresentation": false,
      "name": "Harrträsk",
      "lon": "20.7143043707102",
      "id": "HRT",
      "lat": "67.0334564583013"
    },
    {
      "country": "SE",
      "isForPresentation": false,
      "name": "Harrå",
      "lon": "20.1026690963894",
      "id": "HAR",
      "lat": "67.4062030420357"
    },
    {
      "country": "SE",
      "isForPresentation": false,
      "name": "Hasselfors",
      "lon": "14.6463407812312",
      "id": "HS",
      "lat": "59.0856417089442"
    },
    {
      "country": "SE",
      "isForPresentation": false,
      "name": "Hasslarp",
      "lon": "12.8161962605724",
      "id": "HLP",
      "lat": "56.1357024003641"
    },
    {
      "country": "SE",
      "isForPresentation": true,
      "name": "Hasslerör",
      "lon": "13.9395394965477",
      "id": "HSR",
      "lat": "58.750193686938"
    },
    {
      "country": "SE",
      "isForPresentation": false,
      "name": "Haxäng",
      "lon": "14.8334883866751",
      "id": "HXÄ",
      "lat": "63.0562468155155"
    },
    {
      "country": "SE",
      "isForPresentation": false,
      "name": "Heberg",
      "lon": "12.6444679187393",
      "id": "HE",
      "lat": "56.8733594440504"
    },
    {
      "country": "SE",
      "isForPresentation": true,
      "name": "Heby",
      "lon": "16.853164744942",
      "id": "HY",
      "lat": "59.9404344931839"
    },
    {
      "country": "SE",
      "isForPresentation": true,
      "name": "Hede",
      "lon": "12.0843675299966",
      "id": "KHE",
      "lat": "57.5141189180787"
    },
    {
      "country": "SE",
      "isForPresentation": true,
      "name": "Hedemora",
      "lon": "15.9802354776034",
      "id": "HDM",
      "lat": "60.2741043494171"
    },
    {
      "country": "SE",
      "isForPresentation": false,
      "name": "Hedensbyn",
      "lon": "21.0107318456574",
      "id": "HSB",
      "lat": "64.7448137980172"
    },
    {
      "country": "SE",
      "isForPresentation": false,
      "name": "Hedlandet",
      "lon": "17.2322362914",
      "id": "XHDT",
      "lat": "59.2456808988"
    },
    {
      "country": "SE",
      "isForPresentation": false,
      "name": "Hednoret",
      "lon": "21.5318705105833",
      "id": "HT",
      "lat": "65.8234458572003"
    },
    {
      "country": "NO",
      "isForPresentation": false,
      "name": "Hegra",
      "lon": "12.0974095219406",
      "id": "XHRA",
      "lat": "63.3158078346593"
    },
    {
      "country": "SE",
      "isForPresentation": false,
      "name": "Hela Sverige",
      "lon": "18.0572670029254",
      "id": "HESV",
      "lat": "59.3299708407069"
    },
    {
      "country": "SE",
      "isForPresentation": false,
      "name": "Helenelund",
      "lon": "17.9631198794781",
      "id": "HEL",
      "lat": "59.4085359624385"
    },
    {
      "country": "SE",
      "isForPresentation": false,
      "name": "Helgum",
      "lon": "16.9499072485732",
      "id": "HLM",
      "lat": "63.1510167918012"
    },
    {
      "country": "NO",
      "isForPresentation": false,
      "name": "Hell",
      "lon": "12.0974095219406",
      "id": "XHEL",
      "lat": "63.3158078346593"
    },
    {
      "country": "DK",
      "isForPresentation": false,
      "name": "Hellerup",
      "lon": "12.7001284231991",
      "id": "ZHL",
      "lat": "55.6002314026954"
    },
    {
      "country": "SE",
      "isForPresentation": false,
      "name": "Helmershus",
      "lon": "14.0256085300526",
      "id": "HES",
      "lat": "57.1454042082895"
    },
    {
      "country": "SE",
      "isForPresentation": true,
      "name": "Helsingborg C",
      "lon": "12.6951703696603",
      "id": "HB",
      "lat": "56.0435376872662"
    },
    {
      "country": "DK",
      "isForPresentation": false,
      "name": "Helsingör",
      "lon": "12.6000075324475",
      "id": "DK.HG",
      "lat": "56.0333369699492"
    },
    {
      "country": "DK",
      "isForPresentation": false,
      "name": "Helsingör",
      "lon": "12.7001284231991",
      "id": "ZHG",
      "lat": "55.6002314026954"
    },
    {
      "country": "SE",
      "isForPresentation": false,
      "name": "Hemfosa",
      "lon": "17.9765802784788",
      "id": "HFA",
      "lat": "59.0687886804702"
    },
    {
      "country": "SE",
      "isForPresentation": false,
      "name": "Hemlig resa",
      "lon": "18.0572670029",
      "id": "HE.RE",
      "lat": "59.3299708407"
    },
    {
      "country": "SE",
      "isForPresentation": false,
      "name": "Hennan",
      "lon": "15.9023940091049",
      "id": "HNN",
      "lat": "62.0218523818725"
    },
    {
      "country": "SE",
      "isForPresentation": false,
      "name": "Henriksdal",
      "lon": "18.1082137511",
      "id": "XHED",
      "lat": "59.3122566295"
    },
    {
      "country": "SE",
      "isForPresentation": false,
      "name": "Herrhult",
      "lon": "14.3107462111026",
      "id": "HLT",
      "lat": "59.6498905619521"
    },
    {
      "country": "SE",
      "isForPresentation": true,
      "name": "Herrljunga",
      "lon": "13.0209486775446",
      "id": "HR",
      "lat": "58.0790570023653"
    },
    {
      "country": "SE",
      "isForPresentation": false,
      "name": "Hesselby",
      "lon": "18.5312218073",
      "id": "XHY",
      "lat": "57.5444708440"
    },
    {
      "country": "SE",
      "isForPresentation": true,
      "name": "Hestra",
      "lon": "13.5957537845504",
      "id": "HET",
      "lat": "57.4431079090914"
    },
    {
      "country": "SE",
      "isForPresentation": false,
      "name": "Hillared",
      "lon": "13.1579523747673",
      "id": "HIL",
      "lat": "57.6299036699833"
    },
    {
      "country": "SE",
      "isForPresentation": false,
      "name": "Hilleby",
      "lon": "17.1715047514177",
      "id": "HLY",
      "lat": "60.7303847446683"
    },
    {
      "country": "XX",
      "isForPresentation": false,
      "name": "Hillerstorp",
      "lon": "13.8836280793254",
      "id": "HTO",
      "lat": "57.3135939294987"
    },
    {
      "country": "SE",
      "isForPresentation": true,
      "name": "Hindås",
      "lon": "12.4509557958577",
      "id": "HÅS",
      "lat": "57.704429981076"
    },
    {
      "country": "SE",
      "isForPresentation": false,
      "name": "Hinsnoret",
      "lon": "15.6283464264516",
      "id": "HNO",
      "lat": "60.5424617643555"
    },
    {
      "country": "SE",
      "isForPresentation": false,
      "name": "Hissmofors",
      "lon": "14.4578339246898",
      "id": "HMFS",
      "lat": "63.3198087018341"
    },
    {
      "country": "SE",
      "isForPresentation": false,
      "name": "Hjorted",
      "lon": "16.2438922372",
      "id": "XHJT",
      "lat": "57.6627431191"
    },
    {
      "country": "SE",
      "isForPresentation": false,
      "name": "Hjorthagen",
      "lon": "17.2019929526",
      "id": "XHHN",
      "lat": "59.2566800381"
    },
    {
      "country": "SE",
      "isForPresentation": false,
      "name": "Hjortöström",
      "lon": "15.5507314414",
      "id": "XHJM",
      "lat": "57.3120865543"
    },
    {
      "country": "SE",
      "isForPresentation": false,
      "name": "Hjulsbro",
      "lon": "15.7165450181231",
      "id": "HJ",
      "lat": "58.3793969668097"
    },
    {
      "country": "SE",
      "isForPresentation": false,
      "name": "Hjältevad",
      "lon": "15.3439759786463",
      "id": "HVD",
      "lat": "57.628920281488"
    },
    {
      "country": "SE",
      "isForPresentation": false,
      "name": "Hjärup",
      "lon": "13.1361803318417",
      "id": "HJP",
      "lat": "55.6738087808494"
    },
    {
      "country": "SE",
      "isForPresentation": true,
      "name": "Hofors",
      "lon": "16.266177324608",
      "id": "HFR",
      "lat": "60.5695825302271"
    },
    {
      "country": "SE",
      "isForPresentation": false,
      "name": "Hok",
      "lon": "14.267285197866",
      "id": "HOK",
      "lat": "57.5205835281302"
    },
    {
      "country": "SE",
      "isForPresentation": false,
      "name": "Holmfors",
      "lon": "21.6876441591087",
      "id": "HFS",
      "lat": "65.903152436286"
    },
    {
      "country": "SE",
      "isForPresentation": true,
      "name": "Holmsjö",
      "lon": "15.542248196115",
      "id": "HMÖ",
      "lat": "56.4222378150914"
    },
    {
      "country": "SE",
      "isForPresentation": false,
      "name": "Holmsund",
      "lon": "20.3689839544615",
      "id": "HOD",
      "lat": "63.7084763237188"
    },
    {
      "country": "SE",
      "isForPresentation": true,
      "name": "Holmsveden",
      "lon": "16.7190918434827",
      "id": "HDN",
      "lat": "61.119708853885"
    },
    {
      "country": "SE",
      "isForPresentation": false,
      "name": "Holmån",
      "lon": "17.6483338359192",
      "id": "HOÅ",
      "lat": "63.3912933918193"
    },
    {
      "country": "SE",
      "isForPresentation": false,
      "name": "Holsbybrunn",
      "lon": "15.1952567382036",
      "id": "HBR",
      "lat": "57.4277542715171"
    },
    {
      "country": "SE",
      "isForPresentation": false,
      "name": "Horndal",
      "lon": "16.413709053769",
      "id": "HL",
      "lat": "60.3047627499136"
    },
    {
      "country": "SE",
      "isForPresentation": true,
      "name": "Horndals Bruk",
      "lon": "16.4134623096798",
      "id": "HLR",
      "lat": "60.2961174010251"
    },
    {
      "country": "SE",
      "isForPresentation": false,
      "name": "Hornkullen",
      "lon": "14.2911363919851",
      "id": "HKN",
      "lat": "59.6257373551157"
    },
    {
      "country": "SE",
      "isForPresentation": true,
      "name": "Horred",
      "lon": "12.4776537988102",
      "id": "HRE",
      "lat": "57.3537220020458"
    },
    {
      "country": "SE",
      "isForPresentation": false,
      "name": "Hoting",
      "lon": "16.1991096041634",
      "id": "HTG",
      "lat": "64.1155930250527"
    },
    {
      "country": "SE",
      "isForPresentation": false,
      "name": "Hoting camping",
      "lon": "16.167712721786",
      "id": "HCP",
      "lat": "64.109161685169"
    },
    {
      "country": "SE",
      "isForPresentation": true,
      "name": "Hova",
      "lon": "14.2151761772792",
      "id": "HOVA",
      "lat": "58.8547774150728"
    },
    {
      "country": "SE",
      "isForPresentation": true,
      "name": "Hovmantorp",
      "lon": "15.1395841684983",
      "id": "HVP",
      "lat": "56.7862197343469"
    },
    {
      "country": "SE",
      "isForPresentation": true,
      "name": "Hovslätt",
      "lon": "14.1239484803717",
      "id": "HVS",
      "lat": "57.7348856318414"
    },
    {
      "country": "SE",
      "isForPresentation": false,
      "name": "Hovsta",
      "lon": "15.2186933359002",
      "id": "HSA",
      "lat": "59.3491182006911"
    },
    {
      "country": "SE",
      "isForPresentation": false,
      "name": "Huddinge",
      "lon": "17.9780431297476",
      "id": "HU",
      "lat": "59.2357454503752"
    },
    {
      "country": "SE",
      "isForPresentation": true,
      "name": "Hudiksvall",
      "lon": "17.1091815976973",
      "id": "HKL",
      "lat": "61.7246637222426"
    },
    {
      "country": "SE",
      "isForPresentation": false,
      "name": "Hudiksvall xHkl)",
      "lon": "17.0834195636",
      "id": "XHKL",
      "lat": "61.7039182641"
    },
    {
      "country": "SE",
      "isForPresentation": false,
      "name": "Hulingsryd",
      "lon": "15.8351642679635",
      "id": "HUD",
      "lat": "57.5009927955463"
    },
    {
      "country": "SE",
      "isForPresentation": false,
      "name": "Hult",
      "lon": "15.1287904377788",
      "id": "HUL",
      "lat": "57.6444851118759"
    },
    {
      "country": "SE",
      "isForPresentation": false,
      "name": "Hultanäs",
      "lon": "15.4386990533",
      "id": "XHÄS",
      "lat": "57.2150771698"
    },
    {
      "country": "SE",
      "isForPresentation": false,
      "name": "Hultarp",
      "lon": "15.6109797123",
      "id": "XHAP",
      "lat": "57.3432945953"
    },
    {
      "country": "SE",
      "isForPresentation": true,
      "name": "Hultsfred",
      "lon": "15.8471133291811",
      "id": "HF",
      "lat": "57.485911212756"
    },
    {
      "country": "SE",
      "isForPresentation": false,
      "name": "Hultsfred (xHpf)",
      "lon": "15.8507563685",
      "id": "XHPF",
      "lat": "57.4811794955"
    },
    {
      "country": "SE",
      "isForPresentation": false,
      "name": "Hultsfreds Hembygdspark",
      "lon": "15.8618828310",
      "id": "XHHF",
      "lat": "57.4961418640"
    },
    {
      "country": "DK",
      "isForPresentation": false,
      "name": "Humlebaek",
      "lon": "12.7001284231991",
      "id": "ZHUM",
      "lat": "55.6002314026954"
    },
    {
      "country": "SE",
      "isForPresentation": false,
      "name": "Hundsjön",
      "lon": "21.8026718609845",
      "id": "HUÖ",
      "lat": "65.9652406347867"
    },
    {
      "country": "SE",
      "isForPresentation": true,
      "name": "Huskvarna",
      "lon": "14.2647650527611",
      "id": "HKA",
      "lat": "57.7823655707515"
    },
    {
      "country": "SE",
      "isForPresentation": false,
      "name": "Hussjöby",
      "lon": "17.6057461983029",
      "id": "HSY",
      "lat": "62.5474798308366"
    },
    {
      "country": "SE",
      "isForPresentation": true,
      "name": "Husum",
      "lon": "19.1567121008797",
      "id": "HUM",
      "lat": "63.3443638994547"
    },
    {
      "country": "SE",
      "isForPresentation": false,
      "name": "Husum norra",
      "lon": "19.1675938442452",
      "id": "HUMN",
      "lat": "63.3483427404631"
    },
    {
      "country": "SE",
      "isForPresentation": false,
      "name": "Huvudsta",
      "lon": "18.0006470314368",
      "id": "HUV",
      "lat": "59.3547592623866"
    },
    {
      "country": "SE",
      "isForPresentation": false,
      "name": "Hybo",
      "lon": "16.1927160160",
      "id": "XHBO",
      "lat": "61.7964978822"
    },
    {
      "country": "SE",
      "isForPresentation": true,
      "name": "Hyllie",
      "lon": "12.9763343069827",
      "id": "HIE",
      "lat": "55.5631479708837"
    },
    {
      "country": "SE",
      "isForPresentation": false,
      "name": "Hyllstofta",
      "lon": "13.2858793184254",
      "id": "HYL",
      "lat": "56.1324640426847"
    },
    {
      "country": "SE",
      "isForPresentation": false,
      "name": "Hyltebruk",
      "lon": "13.2364039822669",
      "id": "HYB",
      "lat": "56.9982044472658"
    },
    {
      "country": "SE",
      "isForPresentation": true,
      "name": "Håkantorp",
      "lon": "12.9076468208275",
      "id": "HÅP",
      "lat": "58.3066639270851"
    },
    {
      "country": "SE",
      "isForPresentation": false,
      "name": "Hålbergsliden",
      "lon": "19.5219309189",
      "id": "HÅB",
      "lat": "65.3688250667"
    },